~Version
 VERS              .         3.0                           : CWLS LOG ASCII STANDARD - VERSION 3.0
 WRAP              .         NO                            : ONE LINE PER DEPTH STEP
 DLM               .         SPACE                         : DELIMITING CHARACTER(SPACE TAB OR COMMA)
~Well Information
#_______________________________________________________________________________
#
#PARAMETER_NAME    .UNIT     VALUE                         : DESCRIPTION
#_______________________________________________________________________________
STRT               .M        2610                          : First reference value
STOP               .M        2690                          : Last reference value
STEP               .M        0.2                           : Step increment
NULL               .         -9999                         : Missing value
COMP               .                                       : Company
WELL               .         191P                          : Well name
FLD                .         0317                          : Field
LOC                .         76.994110, 0.452373           : Location
SRVC               .                                       : Service Company
CTRY               .                                       : Country
DATE               .         2002-09-26                    : Service Date
X                  .m        543870<_techsia_br_>          : X or East-West coordinate
Y                  .m        6437555<_techsia_br_>         : Y or North South coordinate
GDAT               .                                       : Geodetic Datum
HZCS               .                                       : Horizontal Co-ordinate System
EREF               .m        119<_techsia_br_>             : 
PROV               .         1                             : Province
UWI                .         031700191P0                   : Unique well id
~Parameter Information Block
#_______________________________________________________________________________
#
#PARAMETER_NAME    .UNIT     VALUE                         : DESCRIPTION
#_______________________________________________________________________________
SET                .         191P                          : 
SET_031700191P0_T_132207_0 .                                       : 
SET_031700191P0_T_132739_0 .                                       : 
STEP_031700191P0_T_132207_0 .M        .2                            : STEP
STEP_031700191P0_T_132739_0 .M        .2                            : STEP
STOP_031700191P0_T_132207_0 .M        2746                          : STOP DEPTH
STOP_031700191P0_T_132739_0 .M        2746                          : STOP DEPTH
STRT_031700191P0_T_132207_0 .M        420                           : START DEPTH
STRT_031700191P0_T_132739_0 .M        10                            : START DEPTH
TLFamily_DS        .         Caliper                       : 
TLFamily_DT        .         Compressional Slowness        : 
TLFamily_GR        .         Gamma Ray                     : 
TLFamily_GZ1       .         Extra Shallow Resistivity     : 
TLFamily_GZ2       .         Shallow Resistivity           : 
TLFamily_GZ3       .         Medium Resistivity            : 
TLFamily_GZ3R      .         Medium Resistivity            : 
TLFamily_GZ4       .         Deep Resistivity              : 
TLFamily_GZ5       .         Extra Deep Resistivity        : 
TLFamily_ILD       .         Conductivity                  : 
TLFamily_LLD       .         Lateral Log Resistivity       : 
TLFamily_MD        .         Measured Depth                : 
TLFamily_MDS       .         Micro Caliper                 : 
TLFamily_MGZ       .         Micro Gradient Resistivity    : 
TLFamily_MLL       .         Micro Lateral Log Resistivity : 
TLFamily_MPZ       .         Micro Potential Resistivity   : 
TLFamily_NGR       .         Neutron Gamma                 : 
TLFamily_NKTD      .         Neutron Far                   : 
TLFamily_PZ        .         Potential Resistivity         : 
TLFamily_RS        .         Mud Resistivity               : 
TLFamily_SP        .         Spontaneous Potential         : 
~Curve Information
#_______________________________________________________________________________
#
#LOGNAME           .UNIT     LOG_ID                        : DESCRIPTION
#_______________________________________________________________________________
MD                 .M                                      :  {F}
DS                 .m                                      :  {F}
DT                 .ms/m                                   :  {F}
GR                 .gapi                                   :  {F}
GZ1                .ohmm                                   :  {F}
GZ2                .ohmm                                   :  {F}
GZ3                .ohmm                                   :  {F}
GZ3R               .ohmm                                   :  {F}
GZ4                .ohmm                                   :  {F}
GZ5                .ohmm                                   :  {F}
ILD                .msim/m                                 :  {F}
LLD                .ohmm                                   :  {F}
MDS                .m                                      :  {F}
MGZ                .ohmm                                   :  {F}
MLL                .ohmm                                   :  {F}
MPZ                .ohmm                                   :  {F}
NGR                .ue                                     :  {F}
NKTD               .ue                                     :  {F}
PZ                 .ohmm                                   :  {F}
RS                 .ohmm                                   :  {F}
SP                 .mv                                     :  {F}
~Ascii
# ...
2680       0.2242     258.7      10.89      10.04      11.81      8.03       8.76       6.25       5.318      108.2      8.45       0.2174     6.881      7.900001   10.04      1.409      1.483      9.859999   1.1257     101.07    
2680.2     0.2237     244.1      11.14      10.61      13.13      8.11       9.15       6.09       4.98       113.7      9.1        0.2164     10.631     8.41       10.39      1.465      1.532      10.41      1.1271     101.08    
2680.4     0.2237     243.0005   10.97009   10.89985   14.03953   8.499801   9.549795   6.09       4.820079   119.1972   9.159969   0.2180991  12.23014   9.239565   12.43888   1.528968   1.580976   10.97971   1.1277     102.9791  
2680.6     0.2243997  246.0984   10.32032   10.67011   12.65066   9.019733   9.829859   6.349867   4.756032   121.9986   8.740204   0.2205987  9.432226   6.940994   10.59085   1.58897    1.609985   11.09994   1.1281     105.2289  
2680.8     0.2253     254.9      10.53      9.6        11.64      9.63       9.91       6.96       4.723      123        8.44       0.2234     8.531      7.78       9.99       1.577      1.543      10.6       1.1267     106.23    
2681       0.2253     265        11.3       9.39       11.97      9.95       9.850001   7.4        4.804      124.2      7.48       0.2257     10.731     8.04       8.79       1.487      1.464      9.870001   1.1259     105.75    
2681.2     0.2248     274        12.06      10.01      12.4       10.03      9.68       7.21       4.864      133.7      7.84       0.2269     8.181      6.87       7.789999   1.449      1.477      9.28       1.1252     106.14    
2681.4     0.2242003  271.3013   12.71967   10.73962   12.87976   10.36983   9.310182   7.26997    4.986938   156.5876   8.549629   0.2250009  8.430872   7.889455   10.2386    1.474987   1.514981   9.559858   1.1251     107.3094  
2681.6     0.2240001  263.0042   12.44014   10.75999   12.2603    11.06964   8.590345   7.709774   5.068959   169.2934   8.400073   0.2200025  10.42989   6.86048    9.840196   1.51498    1.550982   9.979785   1.1243     109.0491  
2681.8     0.225      259.3      12.58      8.99       10.63      11.76      7.52       8.349999   5.131999   186.5      7.570001   0.2212     7.281      7.389999   7.64       1.563      1.569      9.39       1.1222     110.11    
2682       0.2271     270.1      12.41      7.84       8.83       12.01      6.33       9          5.357      181.5      6.579999   0.2252     6.831      6.57       7.44       1.541      1.495      8.48       1.12       111.06    
2682.2     0.2286     267.6      12.44      7.34       7.89       11.38      5.15       9.37       5.607      172.8      5.989999   0.2278     6.631      6.1        6.590001   1.431      1.381      7.679999   1.1178     111.06    
2682.4     0.2263011  279.3941   13.06968   7.040147   7.440218   10.06062   4.69022    9.360004   5.732936   166.8029   6.099945   0.2266006  5.181639   5.100457   5.640439   1.377027   1.354013   6.740439   1.115201   111.3499  
2682.6     0.2253005  296.3915   13.59974   7.379826   7.390025   8.520707   4.59005    8.970191   5.54809    167.4996   6.499794   0.2237014  5.580792   8.387912   6.289657   1.345016   1.381986   6.340194   1.112301   111.6498  
2682.8     0.2263     292.5      13.02      7.929999   7.570001   7.72       4.75       8.4        5.275      173.2      6.98       0.2241     6.431      6.06       7.74       1.365      1.417      6.47       1.1094     111.95    
2683       0.2272     284.9      13.53      7.929999   8.28       7.309999   4.68       8.06       5.064      177.6      6.820001   0.2267     7.531      5.88       7.64       1.405      1.44       6.650001   1.1065     112.26    
2683.2     0.2282     284        13.85      7.96       8.679999   7.1        4.26       8.07       5.063      188.5      6.68       0.2293     6.631      5.31       6.039999   1.427      1.423      6.8        1.103      112.51    
2683.4     0.2310985  273.8051   13.23031   7.590181   7.850394   7.070014   3.880181   8.289888   5.20093    195.4965   6.909883   0.2318987  5.381562   5.31       7.339285   1.377025   1.380021   6.690054   1.100101   112.6699  
2683.6     0.2383963  255.809    12.47038   6.980292   6.440638   7.000034   3.770054   8.499894   5.292953   202.4965   6.450222   0.2332993  8.329181   6.359427   7.939688   1.363007   1.38       6.230223   1.098601   112.5101  
2683.8     0.2456     259.6      11.89      6.33       5.53       6.74       3.83       8.719999   5.352      204.7      5.58       0.2333     6.631      3.6        5.44       1.375      1.388      5.52       1.0972     112.35    
2684       0.2322     310.2      11.43      5.83       5.12       6.11       3.87       8.56       5.409      204.3      5.75       0.2313     3.431      4.63       6.639999   1.353      1.357      4.85       1.098      111.71    
2684.2     0.2589     316.5      11.87      5.48       5.12       5.420001   3.9        7.99       5.251      202.4      5.35       0.2302     5.031      5.39       6.239999   1.319      1.334      4.530001   1.0951     111.11    
2684.4     0.2447071  349.7834   12.53967   5.509985   5.399856   4.940229   3.870015   6.910501   4.968138   199.8013   4.930202   0.2316993  5.680655   2.430968   4.740651   1.301009   1.312011   4.539995   1.0944     110.8102  
2684.6     0.2339054  400.9744   12.54      5.83983    5.38001    4.600164   3.60013    6.10038    4.662149   193.9029   5.669604   0.2339988  1.832037   4.838333   8.087838   1.299001   1.315998   4.669934   1.0936     110.1903  
2684.8     0.2372     307.1      12.75      6.15       5.179999   4.26       3.32       5.58       4.486      188.8      5.9        0.2363     9.431001   4.1        7.239999   1.311      1.336      4.79       1.0921     109.78    
2685       0.2369     290.2      13.1       6.21       5.26       3.88       3.29       5.39       4.279      180.3      6.400001   0.2378     3.981      4.44       7.64       1.323      1.356      4.98       1.0911     109.75    
2685.2     0.2639     254.5      13.48      5.98       5.65       3.69       3.5        5.08       4.135      171.2      5.869999   0.2387     5.881001   5.420001   5.84       1.355      1.377      5.3        1.0896     109.29    
2685.4     0.2416112  245.6044   12.82033   5.950014   6.269674   3.61004    4.029716   4.970054   4.125005   167.0022   5.500179   0.2387     3.731849   3.060874   5.040371   1.390982   1.399989   5.569862   1.086801   108.8202  
2685.6     0.2299059  333.9558   12.07037   6.199872   6.959637   3.87986    4.549725   4.570192   4.096014   158.0043   6.019728   0.2376006  1.981627   2.510249   5.04       1.400995   1.422989   5.979788   1.083802   108.6601  
2685.8     0.2312     297.6      11.71      6.87       7.32       4.25       5.110001   4.36       4.101      152.3      6.829999   0.2354     4.631      5.14       6.940001   1.445      1.447      6.33       1.0787     108.34    
2686       0.2312     276.4      12.04      7.510001   7.44       4.590001   5.26       4.4        4.1        157.5      7.09       0.2354     6.781      5.83       7.64       1.473      1.49       6.66       1.0772     108.34    
2686.2     0.2299     261        12.68      7.920001   7.4        4.62       5.36       4.49       4.131      167.3      7.1        0.2354     6.631      5.420001   7.44       1.513      1.522      6.909999   1.0757     108.51    
2686.4     0.23       258.4013   13.02983   7.460223   7.559919   4.859877   5.619867   4.360064   4.130001   170.0986   6.930084   0.2363995  7.280659   5.609904   7.689874   1.489012   1.499011   6.919995   1.074301   108.51    
2686.6     0.2317991  258.6999   12.28037   6.81031    7.939805   5.309764   5.999804   4.559898   4.245941   169.3004   6.39026    0.2378993  6.831217   5.450078   6.640487   1.457016   1.461019   6.86003    1.072101   108.8298  
2686.8     0.2338     261.5      12.81      6.56       8.2        5.79       6.26       5          4.465      162.6      6.14       0.2399     6.331      3.83       6.14       1.433      1.444      6.75       1.0709     108.99    
