~Version
 VERS              .         3.0                           : CWLS LOG ASCII STANDARD - VERSION 3.0
 WRAP              .         NO                            : ONE LINE PER DEPTH STEP
 DLM               .         SPACE                         : DELIMITING CHARACTER(SPACE TAB OR COMMA)
~Well Information
#_______________________________________________________________________________
#
#PARAMETER_NAME    .UNIT     VALUE                         : DESCRIPTION
#_______________________________________________________________________________
STRT               .M        2610                          : First reference value
STOP               .M        2690                          : Last reference value
STEP               .M        0.2                           : Step increment
NULL               .         -9999                         : Missing value
COMP               .                                       : Company
WELL               .         191P                          : Well name
FLD                .         0317                          : Field
LOC                .         76.994110, 0.452373           : Location
SRVC               .                                       : Service Company
CTRY               .                                       : Country
DATE               .         2002-09-26                    : Service Date
X                  .m        543870<_techsia_br_>          : X or East-West coordinate
Y                  .m        6437555<_techsia_br_>         : Y or North South coordinate
GDAT               .                                       : Geodetic Datum
HZCS               .                                       : Horizontal Co-ordinate System
EREF               .m        119<_techsia_br_>             : 
PROV               .         1                             : Province
UWI                .         031700191P0                   : Unique well id
~Parameter Information Block
#_______________________________________________________________________________
#
#PARAMETER_NAME    .UNIT     VALUE                         : DESCRIPTION
#_______________________________________________________________________________
SET                .         191P                          : 
SET_031700191P0_T_132207_0 .                                       : 
SET_031700191P0_T_132739_0 .                                       : 
STEP_031700191P0_T_132207_0 .M        .2                            : STEP
STEP_031700191P0_T_132739_0 .M        .2                            : STEP
STOP_031700191P0_T_132207_0 .M        2746                          : STOP DEPTH
STOP_031700191P0_T_132739_0 .M        2746                          : STOP DEPTH
STRT_031700191P0_T_132207_0 .M        420                           : START DEPTH
STRT_031700191P0_T_132739_0 .M        10                            : START DEPTH
TLFamily_DS        .         Caliper                       : 
TLFamily_DT        .         Compressional Slowness        : 
TLFamily_GR        .         Gamma Ray                     : 
TLFamily_GZ1       .         Extra Shallow Resistivity     : 
TLFamily_GZ2       .         Shallow Resistivity           : 
TLFamily_GZ3       .         Medium Resistivity            : 
TLFamily_GZ3R      .         Medium Resistivity            : 
TLFamily_GZ4       .         Deep Resistivity              : 
TLFamily_GZ5       .         Extra Deep Resistivity        : 
TLFamily_ILD       .         Conductivity                  : 
TLFamily_LLD       .         Lateral Log Resistivity       : 
TLFamily_MD        .         Measured Depth                : 
TLFamily_MDS       .         Micro Caliper                 : 
TLFamily_MGZ       .         Micro Gradient Resistivity    : 
TLFamily_MLL       .         Micro Lateral Log Resistivity : 
TLFamily_MPZ       .         Micro Potential Resistivity   : 
TLFamily_NGR       .         Neutron Gamma                 : 
TLFamily_NKTD      .         Neutron Far                   : 
TLFamily_PZ        .         Potential Resistivity         : 
TLFamily_RS        .         Mud Resistivity               : 
TLFamily_SP        .         Spontaneous Potential         : 
~Curve Information
#_______________________________________________________________________________
#
#LOGNAME           .UNIT     LOG_ID                        : DESCRIPTION
#_______________________________________________________________________________
MD                 .M                                      :  {F}
DS                 .m                                      :  {F}
DT                 .ms/m                                   :  {F}
GR                 .gapi                                   :  {F}
GZ1                .ohmm                                   :  {F}
GZ2                .ohmm                                   :  {F}
GZ3                .ohmm                                   :  {F}
GZ3R               .ohmm                                   :  {F}
GZ4                .ohmm                                   :  {F}
GZ5                .ohmm                                   :  {F}
ILD                .msim/m                                 :  {F}
LLD                .ohmm                                   :  {F}
MDS                .m                                      :  {F}
MGZ                .ohmm                                   :  {F}
MLL                .ohmm                                   :  {F}
MPZ                .ohmm                                   :  {F}
NGR                .ue                                     :  {F}
NKTD               .ue                                     :  {F}
PZ                 .ohmm                                   :  {F}
RS                 .ohmm                                   :  {F}
SP                 .mv                                     :  {F}
~Ascii
# ...
2666       0.224      262.4      8.85       14.3       15.66      8.1        7.199999   6.27       5.001999   162.9      8.87       0.2224     20.231     17.21      16.14      1.635      1.67       12.68      1.165      74.73     
2666.2     0.224      262.4      9.35       13.54      15         7.63       7.58       6.27       4.747      164.7      8.750001   0.2229     20.231     12.82      17.64      1.649      1.686      12.08      1.1692     73.25     
2666.4     0.2235003  265.3985   9.769791   13.22016   14.85007   7.360132   8.339602   6.23002    4.746      166.8988   8.979884   0.2233997  20.231     8.921618   16.34062   1.666991   1.66501    11.78015   1.171999   71.23101  
2666.6     0.2230003  265.5999   10.05986   13.64978   15.02991   7.150103   9.489387   5.980123   4.714016   168.3992   9.499733   0.2229003  20.28098   16.69477   17.28951   1.645011   1.655005   11.93992   1.173699   68.58133  
2666.8     0.2242     263.2      9.58       14.54      15.63      7.34       9.850001   5.73       4.566      169.9      10.09      0.2229     17.031     16.13      16.49      1.645      1.668      12.71      1.1736     66.33     
2667       0.2245     260.8      9.86       15.13      16.52      7.7        9.45       5.41       4.309      170.9      10.47      0.2224     15.431     16.58      16.24      1.659      1.686      13.49      1.1715     65.26     
2667.2     0.224      264.6      10.32      15.44      17.4       8.08       8.87       5.22       4.159      171.8999   10.24      0.2216     15.481     16.29      16.24      1.667      1.695      13.97      1.1679     65.08     
2667.4     0.2235003  267.8983   10.06013   15.41002   18.15961   8.339869   8.27029    5.060078   4.108025   172.6996   9.900167   0.2205006  16.23062   16.14007   16.6398    1.668999   1.682006   13.97      1.164102   66.50928  
2667.6     0.2220007  268.6996   9.410325   15.55992   18.78968   8.39997    7.700274   5.07999    4.100004   172.8999   10.20984   0.2201002  16.83069   16.59977   15.84039   1.617026   1.66301    13.81008   1.155604   68.38906  
2667.8     0.2214     267.1      9.93       15.85      18.37      8.52       7.29       5.35       4.443      172.8999   10.32      0.2199     15.681     16.12      15.39      1.647      1.674      13.19      1.1513     71.38     
2668       0.2217     268.1      9.9        15.79      16.44      8.750001   7.14       5.68       4.913      172.8999   9.540001   0.2193     15.231     16.29      12.64      1.669      1.698      12.34      1.1462     75.32     
2668.2     0.2225     272        9.72       14.61      12.61      9.030001   6.820001   6.16       5.678      172.1      8.950001   0.219      9.831      13.57      12.54      1.655      1.666      11.23      1.1412     81.32     
2668.4     0.2226999  275.4983   10.29971   12.07115   10.09113   9.289869   6.430189   6.689723   6.331655   167.2024   8.290318   0.2194998  9.831      15.95871   10.64087   1.617019   1.618024   9.960598   1.135503   86.25753  
2668.6     0.2225001  274.1007   10.67981   10.1109    9.900093   9.459914   6.030194   7.119778   6.861724   153.0068   7.590335   0.2203996  6.732275   15.49023   11.23969   1.57702    1.557031   8.9005     1.129803   90.79773  
2668.8     0.2215     277.5      11.35      9.02       9.99       8.77       5.68       7.23       7.178      140.6001   7.7        0.2219     12.031     15.02      10.84      1.521      1.492      8.33       1.1248     94.31     
2669       0.2212     286        11.83      8.91       10.69      7.5        5.43       6.85       7.708001   134.3      7.25       0.2236     9.231      12.24      12.64      1.473      1.463      8.63       1.1212     97.91     
2669.2     0.2215     287.7      12.57      9.51       11.59      7.199999   5.53       7.21       8.242      133.8      7.14       0.2257     17.431     5.630001   10.44      1.451      1.478      9.01       1.1185     100.86    
2669.4     0.2221997  271.2083   13.3696    10.15967   11.85986   7.679752   5.62995    8.179484   8.723752   138.5976   7.629747   0.2271993  8.484054   7.019227   8.690796   1.472989   1.49799    8.790109   1.1177     104.0484  
2669.6     0.2233994  270.2005   14.01968   10.60977   10.06083   8.109779   5.500064   8.999571   9.100807   141.9983   8.42958    0.229199   8.331075   7.359826   9.039821   1.480996   1.494002   8.90994    1.115501   106.2689  
2669.8     0.2262     276.4      14.61      9.859999   9.88       8.06       5.58       9.57       9.479      141.3      7.98       0.2307     10.631     8.19       9.540001   1.475      1.455      8.81       1.1142     106.98    
2670       0.2301     264.6      14.91      8.96       10         7.81       5.84       9.549999   9.761001   137        6.97       0.2312     10.031     8.21       9.64       1.447      1.407      8.58       1.1134     106.17    
2670.2     0.2306     252.8      14.65      8.819999   10.76      7.5        6.47       9.08       10.053     129        6.74       0.2303     9.531      4.06       7.64       1.411      1.375      8.429999   1.1119     102.04    
2670.4     0.226602   294.0794   13.35065   9.759505   11.47963   7.509995   7.339538   8.910084   10.28688   122.4032   7.619533   0.2277013  6.632203   7.787463   7.240194   1.377017   1.378998   8.54994    1.1119     96.82261  
2670.6     0.2225021  317.988    12.02067   11.95878   11.64991   7.809846   7.45994    9.04993    10.34897   119.6014   9.458977   0.2264007  7.630464   6.220699   9.238873   1.388994   1.456961   9.219652   1.1118     95.27077  
2670.8     0.2215     301.5      10.75      13.04      11.57      8.08       6.54       9.02       10.158     121.4      10.77      0.2272     9.831      24.62      13.44      1.505      1.607      10.23      1.1117     95.75     
2671       0.2213     269.9      10.5       11.75      11.79      8.21       6.09       8.73       10.002     123.9      8.14       0.2287     11.831     14.74      15.99      1.633      1.65       10.41      1.1122     96.92     
2671.2     0.2215     248.8      11.2       10.34      11.85      8.15       6.8        8.3        9.624      122.1      7.4        0.2292     20.431     25.74      8.239999   1.579      1.591      10.1       1.1122     98.16     
2671.4     0.2222996  247.3008   11.8097    9.810258   11.72007   7.900123   7.729504   7.760262   9.19321    115.6032   7.559919   0.2282005  11.23436   7.224588   10.43876   1.517031   1.519036   9.790153   1.1118     99.29943  
2671.6     0.2223     271.6878   11.88996   10.10985   11.93989   7.520186   8.239736   7.060334   8.359397   109.603    8.239644   0.2271006  11.83069   7.869661   8.640818   1.503007   1.484017   9.92993    1.1118     100.4094  
2671.8     0.222      298.8      11.32      10.65      12.59      7.199999   8.44       6.43       7.493999   107.6      8.81       0.2264     8.981      7.89       11.44      1.473      1.495      10.46      1.1113     101.68    
2672       0.222      293.6      11.02      11.07      13.47      7.26       8.429999   6.130001   7.002      112.1      8.9        0.2269     11.381     8.34       10.74      1.481      1.521      10.93      1.1113     102.63    
2672.2     0.2215     282.5      11.62      11.59      13.98      7.63       8.79       5.97       6.809      120.6      8.819999   0.2274     11.331     8.41       10.24      1.493      1.531      11.21      1.1105     103.41    
2672.4     0.2215     274.1042   12.09976   11.64997   13.93003   8.039789   9.759489   5.97       6.563121   125.5975   9.079867   0.2281996  10.23152   9.179599   11.63926   1.504994   1.51101    11.20001   1.1098     104.1996  
2672.6     0.2215     273.3004   11.59025   11.07028   13.34029   8.489769   10.35969   6.099935   6.437063   128.8983   8.910084   0.2291995  13.2293    9.10004    11.2402    1.481012   1.479016   10.83018   1.1097     104.5898  
2672.8     0.2213     272.9      11.87      10.36      12.48      8.930001   10.35      6.420001   6.404      129.9      8.1        0.2299     10.231     7.33       9.939999   1.465      1.478      10.29      1.1091     105.07    
