~Version
 VERS              .         3.0                           : CWLS LOG ASCII STANDARD - VERSION 3.0
 WRAP              .         NO                            : ONE LINE PER DEPTH STEP
 DLM               .         SPACE                         : DELIMITING CHARACTER(SPACE TAB OR COMMA)
~Well Information
#_______________________________________________________________________________
#
#PARAMETER_NAME    .UNIT     VALUE                         : DESCRIPTION
#_______________________________________________________________________________
STRT               .M        2610                          : First reference value
STOP               .M        2690                          : Last reference value
STEP               .M        0.2                           : Step increment
NULL               .         -9999                         : Missing value
COMP               .                                       : Company
WELL               .         191P                          : Well name
FLD                .         0317                          : Field
LOC                .         76.994110, 0.452373           : Location
SRVC               .                                       : Service Company
CTRY               .                                       : Country
DATE               .         2002-09-26                    : Service Date
X                  .m        543870<_techsia_br_>          : X or East-West coordinate
Y                  .m        6437555<_techsia_br_>         : Y or North South coordinate
GDAT               .                                       : Geodetic Datum
HZCS               .                                       : Horizontal Co-ordinate System
EREF               .m        119<_techsia_br_>             : 
PROV               .         1                             : Province
UWI                .         031700191P0                   : Unique well id
~Parameter Information Block
#_______________________________________________________________________________
#
#PARAMETER_NAME    .UNIT     VALUE                         : DESCRIPTION
#_______________________________________________________________________________
SET                .         191P                          : 
SET_031700191P0_T_132207_0 .                                       : 
SET_031700191P0_T_132739_0 .                                       : 
STEP_031700191P0_T_132207_0 .M        .2                            : STEP
STEP_031700191P0_T_132739_0 .M        .2                            : STEP
STOP_031700191P0_T_132207_0 .M        2746                          : STOP DEPTH
STOP_031700191P0_T_132739_0 .M        2746                          : STOP DEPTH
STRT_031700191P0_T_132207_0 .M        420                           : START DEPTH
STRT_031700191P0_T_132739_0 .M        10                            : START DEPTH
TLFamily_DS        .         Caliper                       : 
TLFamily_DT        .         Compressional Slowness        : 
TLFamily_GR        .         Gamma Ray                     : 
TLFamily_GZ1       .         Extra Shallow Resistivity     : 
TLFamily_GZ2       .         Shallow Resistivity           : 
TLFamily_GZ3       .         Medium Resistivity            : 
TLFamily_GZ3R      .         Medium Resistivity            : 
TLFamily_GZ4       .         Deep Resistivity              : 
TLFamily_GZ5       .         Extra Deep Resistivity        : 
TLFamily_ILD       .         Conductivity                  : 
TLFamily_LLD       .         Lateral Log Resistivity       : 
TLFamily_MD        .         Measured Depth                : 
TLFamily_MDS       .         Micro Caliper                 : 
TLFamily_MGZ       .         Micro Gradient Resistivity    : 
TLFamily_MLL       .         Micro Lateral Log Resistivity : 
TLFamily_MPZ       .         Micro Potential Resistivity   : 
TLFamily_NGR       .         Neutron Gamma                 : 
TLFamily_NKTD      .         Neutron Far                   : 
TLFamily_PZ        .         Potential Resistivity         : 
TLFamily_RS        .         Mud Resistivity               : 
TLFamily_SP        .         Spontaneous Potential         : 
~Curve Information
#_______________________________________________________________________________
#
#LOGNAME           .UNIT     LOG_ID                        : DESCRIPTION
#_______________________________________________________________________________
MD                 .M                                      :  {F}
DS                 .m                                      :  {F}
DT                 .ms/m                                   :  {F}
GR                 .gapi                                   :  {F}
GZ1                .ohmm                                   :  {F}
GZ2                .ohmm                                   :  {F}
GZ3                .ohmm                                   :  {F}
GZ3R               .ohmm                                   :  {F}
GZ4                .ohmm                                   :  {F}
GZ5                .ohmm                                   :  {F}
ILD                .msim/m                                 :  {F}
LLD                .ohmm                                   :  {F}
MDS                .m                                      :  {F}
MGZ                .ohmm                                   :  {F}
MLL                .ohmm                                   :  {F}
MPZ                .ohmm                                   :  {F}
NGR                .ue                                     :  {F}
NKTD               .ue                                     :  {F}
PZ                 .ohmm                                   :  {F}
RS                 .ohmm                                   :  {F}
SP                 .mv                                     :  {F}
~Ascii
# ...
2673       0.2213     267.6      12.41      9.73       11.57      9.349999   10.29      6.579999   6.491001   130.7      7.53       0.23       9.231      6.650001   8.54       1.469      1.489      9.66       1.109      105.23    
2673.2     0.2216     267.7      12.15      9.49       11.1       9.6        10.36      6.48       6.677      129        7.65       0.2292     10.131     5.39       6.99       1.471      1.455      9.259999   1.1092     105.39    
2673.4     0.2223996  275.8959   12.16999   9.649919   11.19995   9.759919   10.08014   6.450015   6.814931   128.6002   8.079779   0.2302994  8.031933   7.718614   8.239322   1.443014   1.437009   9.050104   1.1092     105.2301  
2673.6     0.2235994  280.3977   11.30044   10.13975   11.40989   9.759999   9.440309   6.659893   6.782017   128.1003   8.229923   0.2299002  8.430795   6.690479   8.33995    1.425009   1.447994   9.359841   1.1095     105.0701  
2673.8     0.2243     276.9      11.22      10.47      11.53      9.889999   8.5        6.95       6.633      127.6      8.08       0.2257     8.031      8.03       10.19      1.441      1.454      9.69       1.1095     105.07    
2674       0.2239     270.4      11.5       10.06      11.4       9.889999   7.929999   7.21       6.48       126.2      7.75       0.2244     9.881      6.73       7.94       1.425      1.437      9.47       1.1094     105.56    
2674.2     0.2226     266.8      10.77      9.59       11.15      9.77       7.72       7.45       6.435      124.6      7.81       0.2249     8.631      4.35       9.839999   1.409      1.425      9.29       1.1094     105.72    
2674.4     0.2221003  269.9984   11.23977   9.560015   10.96009   9.490138   7.530094   7.48998    6.398018   122.3011   7.90995    0.2261993  9.980275   7.527936   7.740929   1.409      1.442991   9.29       1.1086     105.4002  
2674.6     0.2225997  278.7956   11.66979   9.769895   10.91002   9.170157   7.370079   7.47001    6.242077   120.8008   8.049929   0.2276992  8.83154    7.729899   9.13924    1.432988   1.466988   9.46991    1.1079     104.9202  
2674.8     0.2221     282.6      12.45      10.02      11.52      8.78       7.48       7.56       6.053999   119.8      8.239999   0.228      6.631      8.41       7.84       1.463      1.492      9.74       1.1072     104.76    
2675       0.2221     278.9      11.87      10.27      12.04      8.47       8.02       7.75       5.898      119.6      8.4        0.2267     8.531      6.46       10.04      1.485      1.506      10         1.1065     104.92    
2675.2     0.2228     274.8      11.58      10.41      12.26      8.54       8.53       8.18       5.856      119.6      8.4        0.2264     10.881     8.15       10.19      1.489      1.475      10.02      1.1057     105.24    
2675.4     0.2235996  270.3022   11.41008   10.35003   11.67029   9.019754   8.500015   8.609779   5.77504    119.7999   8.120137   0.2264     8.781941   10.4487    8.940585   1.463013   1.474      9.920051   1.1055     106.0196  
2675.6     0.2247994  267.9012   11.66987   10.25005   11.77995   9.339837   8.210142   8.909846   5.771003   119.9999   8.129996   0.224401   9.98036    6.481548   9.589664   1.463      1.496989   9.800059   1.1061     106.5297  
2675.8     0.2244     276.4      12.14      10.19      12         9.349999   8.05       9.19       5.885      120        8.06       0.2216     8.881      9.33       9.34       1.465      1.492      9.8        1.1068     107.11    
2676       0.2231     280.3      12.62      10.37      12.03      9.439999   8.270001   9.309999   5.889999   119.8      8.07       0.223      9.331      5.82       9.14       1.477      1.454      9.83       1.1067     107.17    
2676.2     0.2226     281        12.81      10.59      11.82      9.52       8.320001   9.28       5.883999   120        8.63       0.2249     6.731      8.47       8.239999   1.423      1.406      10         1.1067     106.95    
2676.4     0.2226     287.8965   13.23979   10.46006   11.60011   9.50001    8.170074   9.220031   5.883001   117.6012   8.400113   0.226899   10.92835   7.100626   9.139527   1.391016   1.402002   10.02999   1.1066     106.6502  
2676.6     0.2226     289.1994   12.82021   10.12017   11.67996   9.470016   7.990088   9.12005    6.036922   114.3017   7.800289   0.2271999  7.032552   9.378694   7.740644   1.385003   1.411995   10.00001   1.1066     106.0003  
2676.8     0.2226     285.3      11.99      10.06      11.79      9.41       7.860001   9.19       6.217999   109.8      7.7        0.2258     9.981      8.379999   7.89       1.389      1.396      10         1.1072     105.56    
2677       0.2226     280        11.89      10.38      12.14      9.309999   7.83       9.250001   6.388      104.4      8.3        0.223      7.980999   8.320001   8.54       1.381      1.399      10         1.1079     105.09    
2677.2     0.2226     276.2      11.44      11.19      12.75      9.22       7.96       9.22       6.482999   100.1      8.59       0.2174     9.531      8.260001   9.79       1.393      1.425      10.14      1.108      105.25    
2677.4     0.2226     277.9991   11.30007   11.86965   13.80945   9.18002    8.3498     9.060081   6.419032   97.30138   9.359597   0.2165004  10.08072   9.119549   11.13928   1.402995   1.441992   10.46983   1.108      105.4099  
2677.6     0.2226     283.897    11.5099    12.42971   14.85946   9.429873   8.859737   9.040009   6.386017   96.70028   9.230064   0.2195985  9.281384   10.25939   10.89012   1.434984   1.451995   11.35954   1.1074     105.7298  
2677.8     0.2226     292.1      11.56      12.82      15.99      9.759999   9.27       9.15       6.512      96.90001   9.16       0.2223     11.631     10.09      9.74       1.425      1.421      12.17      1.1073     106.22    
2678       0.2227     292.7      11.89      13.06      16.87      10.36      9.6        9.41       6.67       98.19999   9.63       0.2241     8.531      9.39       10.74      1.389      1.412      12.8       1.108      106.86    
2678.2     0.2227     283.7      12.52      13.11      17.11      10.91      9.699999   9.69       6.863999   100.7      9.619999   0.2251     10.381     10.04      10.74      1.403      1.438      13.08      1.1094     107.54    
2678.4     0.2227     283.9998   13.12969   13.09001   16.55027   11.46971   9.590055   9.909888   7.081889   105.6975   9.23019    0.2249001  12.23      9.600215   9.240695   1.420991   1.459989   13.07      1.110699   108.4695  
2678.6     0.2222003  287.1984   13.34989   12.6902    16.05025   11.77984   9.550019   10.00995   7.173954   112.1967   9.060085   0.2217016  10.03199   7.730837   8.790219   1.452984   1.46       12.74016   1.112099   108.9498  
2678.8     0.2222     288.9      12.73      11.97      15.41      11.89      9.68       9.920001   7.079999   118        8.950001   0.2166     11.531     6.400001   11.44      1.425      1.428      12.25      1.1135     109.11    
2679       0.2217     290.5      13.28      11.4       13.65      11.65      9.6        9.61       6.952001   121.4      8.63       0.2184     11.631     9.899999   9.24       1.407      1.401      11.7       1.1162     108.79    
2679.2     0.2214     297.6      14.22      10.41      11.98      11.06      9.22       9.02       6.666      120.8      8.56       0.2211     10.181     8.34       9.540001   1.397      1.416      11.08      1.1183     108.21    
2679.4     0.2221996  289.2042   12.90066   9.31052    11.04045   10.20041   8.810201   8.430285   6.348155   117.7016   7.700408   0.2237986  8.68169    7.160545   10.38956   1.408994   1.425995   10.36035   1.120899   106.8707  
2679.6     0.2226997  290.2994   11.66062   8.980162   10.88008   9.330417   8.470167   7.730335   6.029155   112.5025   7.040316   0.2253992  9.130769   5.510722   8.740755   1.393008   1.411008   9.59037    1.122999   104.881   
2679.8     0.2242     292.1      10.92      9.41       11.01      8.54       8.45       6.77       5.703001   108.3      8.04       0.2231     7.531      6.07       7.14       1.393      1.423      9.45       1.1243     102.61    
