~Version
 VERS              .         3.0                           : CWLS LOG ASCII STANDARD - VERSION 3.0
 WRAP              .         NO                            : ONE LINE PER DEPTH STEP
 DLM               .         SPACE                         : DELIMITING CHARACTER(SPACE TAB OR COMMA)
~Well Information
#_______________________________________________________________________________
#
#PARAMETER_NAME    .UNIT     VALUE                         : DESCRIPTION
#_______________________________________________________________________________
STRT               .M        2610                          : First reference value
STOP               .M        2690                          : Last reference value
STEP               .M        0.2                           : Step increment
NULL               .         -9999                         : Missing value
COMP               .                                       : Company
WELL               .         191P                          : Well name
FLD                .         0317                          : Field
LOC                .         76.994110, 0.452373           : Location
SRVC               .                                       : Service Company
CTRY               .                                       : Country
DATE               .         2002-09-26                    : Service Date
X                  .m        543870<_techsia_br_>          : X or East-West coordinate
Y                  .m        6437555<_techsia_br_>         : Y or North South coordinate
GDAT               .                                       : Geodetic Datum
HZCS               .                                       : Horizontal Co-ordinate System
EREF               .m        119<_techsia_br_>             : 
PROV               .         1                             : Province
UWI                .         031700191P0                   : Unique well id
~Parameter Information Block
#_______________________________________________________________________________
#
#PARAMETER_NAME    .UNIT     VALUE                         : DESCRIPTION
#_______________________________________________________________________________
SET                .         191P                          : 
SET_031700191P0_T_132207_0 .                                       : 
SET_031700191P0_T_132739_0 .                                       : 
STEP_031700191P0_T_132207_0 .M        .2                            : STEP
STEP_031700191P0_T_132739_0 .M        .2                            : STEP
STOP_031700191P0_T_132207_0 .M        2746                          : STOP DEPTH
STOP_031700191P0_T_132739_0 .M        2746                          : STOP DEPTH
STRT_031700191P0_T_132207_0 .M        420                           : START DEPTH
STRT_031700191P0_T_132739_0 .M        10                            : START DEPTH
TLFamily_DS        .         Caliper                       : 
TLFamily_DT        .         Compressional Slowness        : 
TLFamily_GR        .         Gamma Ray                     : 
TLFamily_GZ1       .         Extra Shallow Resistivity     : 
TLFamily_GZ2       .         Shallow Resistivity           : 
TLFamily_GZ3       .         Medium Resistivity            : 
TLFamily_GZ3R      .         Medium Resistivity            : 
TLFamily_GZ4       .         Deep Resistivity              : 
TLFamily_GZ5       .         Extra Deep Resistivity        : 
TLFamily_ILD       .         Conductivity                  : 
TLFamily_LLD       .         Lateral Log Resistivity       : 
TLFamily_MD        .         Measured Depth                : 
TLFamily_MDS       .         Micro Caliper                 : 
TLFamily_MGZ       .         Micro Gradient Resistivity    : 
TLFamily_MLL       .         Micro Lateral Log Resistivity : 
TLFamily_MPZ       .         Micro Potential Resistivity   : 
TLFamily_NGR       .         Neutron Gamma                 : 
TLFamily_NKTD      .         Neutron Far                   : 
TLFamily_PZ        .         Potential Resistivity         : 
TLFamily_RS        .         Mud Resistivity               : 
TLFamily_SP        .         Spontaneous Potential         : 
~Curve Information
#_______________________________________________________________________________
#
#LOGNAME           .UNIT     LOG_ID                        : DESCRIPTION
#_______________________________________________________________________________
MD                 .M                                      :  {F}
DS                 .m                                      :  {F}
DT                 .ms/m                                   :  {F}
GR                 .gapi                                   :  {F}
GZ1                .ohmm                                   :  {F}
GZ2                .ohmm                                   :  {F}
GZ3                .ohmm                                   :  {F}
GZ3R               .ohmm                                   :  {F}
GZ4                .ohmm                                   :  {F}
GZ5                .ohmm                                   :  {F}
ILD                .msim/m                                 :  {F}
LLD                .ohmm                                   :  {F}
MDS                .m                                      :  {F}
MGZ                .ohmm                                   :  {F}
MLL                .ohmm                                   :  {F}
MPZ                .ohmm                                   :  {F}
NGR                .ue                                     :  {F}
NKTD               .ue                                     :  {F}
PZ                 .ohmm                                   :  {F}
RS                 .ohmm                                   :  {F}
SP                 .mv                                     :  {F}
~Ascii
# ...
2631       0.2291     437.6      54.91      30.48      85.12998   113.05     168.67     59.16001   7.184      12.4       23.19      0.23       22.745     99.82999   21.7       1.828      1.913      77.69      1.4619     70.26     
2631.2     0.2273     459.7      56.18      31.57      88.56      112.46     165.48     66.48999   7.184      11.5       27.56      0.2293     14.699     64.02      15.655     1.856      1.905      79.91      1.4597     68.59     
2631.4     0.2240017  443.1083   57.07955   32.80937   92.31807   114.0692   164.6804   73.75619   7.184      9.700825   31.90766   0.2286003  25.45301   102.9855   21.1768    1.847005   1.857024   82.56865   1.457501   67.02078  
2631.6     0.2230005  448.3973   57.03003   33.7995    93.05961   117.2984   170.2572   80.50646   7.428876   8.700472   32.21984   0.2283002  32.62196   119.9808   20.33541   1.846      1.862997   85.05875   1.4567     65.29086  
2631.8     0.222      458.4      56.79      34.75      95.28999   116.45     175.96     88.96999   7.698      8.5        28.12      0.228      31.275     149.06     24.7       1.882      1.899      87.30001   1.4573     63.41     
2632       0.2215     437.7      56.59      34.43      98.58999   117.43     180.6      98.16999   8.041      8.2        27.21      0.228      29.734     100.85     21.417     1.936      1.948      89.81      1.4558     60.74     
2632.2     0.2212     415.8      57.37      35.27999   103.75     119.01     181.34     103.77     8.523      8          31.47      0.228      29.5       113.68     24.69      1.946      1.932      92.22001   1.4543     57.44     
2632.4     0.2209001  396.4097   58.26955   36.48939   105.3192   120.5492   186.9171   111.6059   9.172663   7.600195   34.16859   0.2277001  30.86031   162.1612   27.59147   1.932007   1.881026   94.7887    1.451401   55.00122  
2632.6     0.221      384.7059   58.4699    36.48      104.8502   122.9488   193.2867   117.8568   9.924609   7.200194   32.62077   0.2277     34.73794   129.2447   30.31358   1.911011   1.833024   97.08883   1.447002   53.23088  
2632.8     0.2207     389.7      58.27      37.08      103.68     126.43     199.67     125.69     10.688     6.7        34.36      0.228      29.906     168.8      27.087     1.893      1.806      99.78999   1.4431     51.86     
2633       0.2207     405        58.11      38.01      106.84     128.86     206.05     133.52     11.684     6.199999   33.13      0.2279     26.6       213.3      29.6       1.877      1.812      106.29     1.4388     51.06     
2633.2     0.2207     422.9      58.3       38.85      110        133.72     209.76     141.35     12.535     5.4        33.95      0.2282     31.844     205.31     26.88      1.854      1.857      107.36     1.4338     51.48     
2633.4     0.2207     443.2898   58.22004   39.69958   113.1584   136.1787   208.9803   149.0461   13.35957   5.4        35.68911   0.2283999  32.73954   148.7839   28.24929   1.843006   1.906975   107.39     1.427303   53.09919  
2633.6     0.2204002  453.5948   57.93015   40.26971   116.3184   139.3484   206.5911   155.6866   13.9517    5.699845   35.44012   0.2287998  38.09111   220.3167   29.50936   1.872985   1.960973   107.41     1.423002   56.0985   
2633.8     0.2204     459.9      57.18      40.29      114.96     139.38     201.02     158.5      14.482     6.199999   30.07      0.2294     35.5       145.58     24.5       1.926      2          107.44     1.4176     57.98     
2634       0.2204     460        56.7       39.79      110.27     141        199.3999   158.86     14.958     7          29.54      0.2297     36.16      130.24     24.78      1.971      2.019      100.95     1.4118     57.76     
2634.2     0.2201     451.6      56.71      38.21      107.54     141.03     195.59     158.85     15.461     8          24.89      0.2299     33.58      61.39      21.3       1.967      1.974      97.55      1.4061     55.84     
2634.4     0.2202     428.4116   56.5201    36.68074   100.2935   140.8401   190.8923   159.4996   16.29757   9.699065   20.82186   0.2299     35.77488   146.2265   20.20054   1.94701    1.921026   95.3111    1.401302   53.02141  
2634.6     0.2203999  406.511    55.69041   34.59101   98.20101   138.5912   187.4218   156.4416   17.58733   10.59953   19.69055   0.2296001  29.6178    80.89397   21.14951   1.915016   1.88002    93.17104   1.394603   49.19191  
2634.8     0.2202     400        55.56      33.49001   96.62      134.8      183.88     156.43     20.48      11.1       18.61      0.2294     28.525     47.54      22.2       1.885      1.849      90.85      1.3867     44.35     
2635       0.2199     416.4      55.36      33.25      91.87      129.7      179.44     155.62     24.502     10.6       18.3       0.2286     24.462     43.87      15.975     1.86       1.84       88.30001   1.3771     38.67     
2635.2     0.2199     423.5      55.1       33.21      88.51001   127.54     175.44     157.21     27.662     9.8        21.66      0.2279     40.865     134.23     26.84      1.817      1.814      86.58001   1.3662     31.35     
2635.4     0.22       423.9998   55.06002   32.75023   88.14019   125.1612   173.0511   160.8781   30.85631   8.000812   23.64896   0.2274003  39.07088   104.903    28.27926   1.79701    1.787013   86.86986   1.351307   24.05365  
2635.6     0.2202999  428.8976   55.16994   32.28023   92.44778   125.9796   171.4707   166.757    33.52462   5.800933   21.31111   0.2268003  48.47477   77.57172   33.51515   1.828984   1.813987   89.08888   1.337207   18.00303  
2635.8     0.2205     415.9      55.66      33.5       97.71999   127.61     170.6799   170.42     37.04399   4.5        21.06      0.226      32.638     88.84999   32         1.882      1.849      92.56999   1.3216     14.84     
2636       0.2204     382.2      55.59      36.21      103.78     127.64     171.35     175.63     40.295     3.4        28.81      0.2255     52.013     213.6199   58.318     1.881      1.895      96.61      1.3073     14.06     
2636.2     0.2209     342.6      54.66      37.99001   100.83     130.82     172.32     181.08     42.784     3.2        60.75999   0.2244     68.805     221.57     51.90999   1.844      1.908      105.55     1.2928     13.45     
2636.4     0.2209     343.8994   51.61153   39.25935   104.1583   132.4992   176.5679   186.5173   43.5606    3.399897   123.5062   0.2241001  64.0233    227.1872   48.14481   1.80302    1.823042   108.7284   1.280106   14.39952  
2636.6     0.2206001  370.0869   44.77342   39.25      111.6461   133.3196   184.6259   192.2172   44.33861   4.199556   59.83169   0.2236003  38.66775   83.22179   38.49431   1.776013   1.752035   114.1572   1.268606   15.94922  
2636.8     0.2209     372.4      42.28      39.41      115.91     134.15     196.85     193.44     45.557     5.199999   37.53      0.2236     37.181     222.25     27.325     1.738      1.694      117.37     1.2603     18.6      
2637       0.2209     375.5      41.71      39.24      119.07     138.18     209.66     196.0399   47.641     5.800001   34.08      0.2236     40.50999   102.2      31.42      1.693      1.669      118.9      1.2547     20.78     
2637.2     0.2206     395.1      41.69      39.1       120.63     138.21     213.3      199.58     50.734     7          35.85      0.2233     51.518     174.49     31.42      1.67       1.646      117.42     1.2518     21.81     
2637.4     0.2201003  416.2894   44.20874   39.23993   122.2392   138.23     214.9192   205.0173   55.14771   6.800099   32.5016    0.2231001  37.27603   145.7331   25.17279   1.656007   1.628009   114.2616   1.249701   21.97991  
2637.6     0.2201     436.6898   47.32844   39.38993   125.2785   140.7088   221.5466   212.0363   59.98749   6.500146   34.84878   0.2231     38.89417   126.8387   24.37839   1.640008   1.64899    111.1115   1.2503     22.81958  
2637.8     0.2198     450.7      49.93      39.7       125.14     142.29     226.18     219.06     64.775     6.3        32.87      0.2228     39.825     195.86     26.5       1.629      1.686      107.95     1.2509     24.57     
