~Version
 VERS              .         3.0                           : CWLS LOG ASCII STANDARD - VERSION 3.0
 WRAP              .         NO                            : ONE LINE PER DEPTH STEP
 DLM               .         SPACE                         : DELIMITING CHARACTER(SPACE TAB OR COMMA)
~Well Information
#_______________________________________________________________________________
#
#PARAMETER_NAME    .UNIT     VALUE                         : DESCRIPTION
#_______________________________________________________________________________
STRT               .M        2610                          : First reference value
STOP               .M        2690                          : Last reference value
STEP               .M        0.2                           : Step increment
NULL               .         -9999                         : Missing value
COMP               .                                       : Company
WELL               .         191P                          : Well name
FLD                .         0317                          : Field
LOC                .         76.994110, 0.452373           : Location
SRVC               .                                       : Service Company
CTRY               .                                       : Country
DATE               .         2002-09-26                    : Service Date
X                  .m        543870<_techsia_br_>          : X or East-West coordinate
Y                  .m        6437555<_techsia_br_>         : Y or North South coordinate
GDAT               .                                       : Geodetic Datum
HZCS               .                                       : Horizontal Co-ordinate System
EREF               .m        119<_techsia_br_>             : 
PROV               .         1                             : Province
UWI                .         031700191P0                   : Unique well id
~Parameter Information Block
#_______________________________________________________________________________
#
#PARAMETER_NAME    .UNIT     VALUE                         : DESCRIPTION
#_______________________________________________________________________________
SET                .         191P                          : 
SET_031700191P0_T_132207_0 .                                       : 
SET_031700191P0_T_132739_0 .                                       : 
STEP_031700191P0_T_132207_0 .M        .2                            : STEP
STEP_031700191P0_T_132739_0 .M        .2                            : STEP
STOP_031700191P0_T_132207_0 .M        2746                          : STOP DEPTH
STOP_031700191P0_T_132739_0 .M        2746                          : STOP DEPTH
STRT_031700191P0_T_132207_0 .M        420                           : START DEPTH
STRT_031700191P0_T_132739_0 .M        10                            : START DEPTH
TLFamily_DS        .         Caliper                       : 
TLFamily_DT        .         Compressional Slowness        : 
TLFamily_GR        .         Gamma Ray                     : 
TLFamily_GZ1       .         Extra Shallow Resistivity     : 
TLFamily_GZ2       .         Shallow Resistivity           : 
TLFamily_GZ3       .         Medium Resistivity            : 
TLFamily_GZ3R      .         Medium Resistivity            : 
TLFamily_GZ4       .         Deep Resistivity              : 
TLFamily_GZ5       .         Extra Deep Resistivity        : 
TLFamily_ILD       .         Conductivity                  : 
TLFamily_LLD       .         Lateral Log Resistivity       : 
TLFamily_MD        .         Measured Depth                : 
TLFamily_MDS       .         Micro Caliper                 : 
TLFamily_MGZ       .         Micro Gradient Resistivity    : 
TLFamily_MLL       .         Micro Lateral Log Resistivity : 
TLFamily_MPZ       .         Micro Potential Resistivity   : 
TLFamily_NGR       .         Neutron Gamma                 : 
TLFamily_NKTD      .         Neutron Far                   : 
TLFamily_PZ        .         Potential Resistivity         : 
TLFamily_RS        .         Mud Resistivity               : 
TLFamily_SP        .         Spontaneous Potential         : 
~Curve Information
#_______________________________________________________________________________
#
#LOGNAME           .UNIT     LOG_ID                        : DESCRIPTION
#_______________________________________________________________________________
MD                 .M                                      :  {F}
DS                 .m                                      :  {F}
DT                 .ms/m                                   :  {F}
GR                 .gapi                                   :  {F}
GZ1                .ohmm                                   :  {F}
GZ2                .ohmm                                   :  {F}
GZ3                .ohmm                                   :  {F}
GZ3R               .ohmm                                   :  {F}
GZ4                .ohmm                                   :  {F}
GZ5                .ohmm                                   :  {F}
ILD                .msim/m                                 :  {F}
LLD                .ohmm                                   :  {F}
MDS                .m                                      :  {F}
MGZ                .ohmm                                   :  {F}
MLL                .ohmm                                   :  {F}
MPZ                .ohmm                                   :  {F}
NGR                .ue                                     :  {F}
NKTD               .ue                                     :  {F}
PZ                 .ohmm                                   :  {F}
RS                 .ohmm                                   :  {F}
SP                 .mv                                     :  {F}
~Ascii
# ...
2617       0.2228     314.8      17.68      10.8       11.8       8.02       9.08       6.62       4.127      118.7      8.63       0.22       10.177     15.52      9.764      1.477      1.534      10.17      1.4179     111.68    
2617.2     0.2226     298.1      17.14      11.27      11.91      8.18       9.5        6.33       3.991      116        8.76       0.2203     8.778      8.34       9.021      1.488      1.549      10.41      1.4214     111.69    
2617.4     0.2226     283.1075   16.87014   11.51987   12.33978   8.419879   9.909791   6.23005    3.864063   113.6012   8.83996    0.2204999  8.729025   8.34       8.889066   1.524981   1.56799    10.72984   1.423599   112.0098  
2617.6     0.2223001  279.5018   17.02992   11.63994   12.98967   8.619898   10.19985   6.289969   3.800032   112.7005   9.059889   0.2209997  9.38466    8.49992    9.157863   1.562981   1.583992   11.04984   1.425599   112.02    
2617.8     0.2218     277        17.6       11.83      13.53      8.89       10.07      6.420001   3.768      112.9      9.309999   0.2212     10.59      8.12       9.52       1.572      1.595      11.3       1.4276     112.02    
2618       0.222      275.7      17.45      11.88      13.89      9.15       9.71       6.45       3.8        115.2      9.4        0.2225     10.161     8.73       9.387001   1.575      1.601      11.35      1.4291     112.19    
2618.2     0.2218     283        16.29      11.84      13.67      9.419999   9.32       6.62       3.864      118.2      9.23       0.2237     8.863      8.55       9.042      1.571      1.593      11.22      1.4304     112.19    
2618.4     0.2218     298.3923   15.98015   11.48018   13.22022   9.679869   9.26003    6.96982    3.927968   120.9986   8.860181   0.2244996  8.552153   8.030252   8.316348   1.555008   1.558017   11.09006   1.431399   112.19    
2618.6     0.2218     305.1966   16.47975   11.05021   12.69026   9.949862   9.459898   7.219873   4.055935   121.3998   8.560147   0.2252996  8.304122   7.740142   7.744277   1.528013   1.525016   10.90009   1.4317     112.3599  
2618.8     0.2218     313.6      17.49      10.82      12.34      10.08      9.56       7.570001   4.275      119.4      8.49       0.2263     8.765      7.309999   7.975      1.505      1.5        10.62      1.4329     112.36    
2619       0.2218     314.8      17.93      10.85      12.4       10.02      9.23       7.900001   4.494      116.3      8.610001   0.2273     8.651999   7.94       7.984      1.492      1.495      10.4       1.4314     112.53    
2619.2     0.2223     309.9      18.35      11.06      12.5       9.960001   8.73       8.1        4.63       115.8      8.69       0.2283     8.366001   8.09       7.588      1.482      1.501      10.43      1.4292     112.69    
2619.4     0.2227997  307.801    18.72981   11.43981   12.52999   9.800079   8.380171   8.279909   4.773927   115.9998   8.779954   0.2291996  9.139596   8.429826   7.789897   1.476003   1.498002   10.54994   1.427701   112.73    
2619.6     0.2231998  315.6961   18.08032   11.47998   12.53      9.570114   8.060158   8.369955   5.012877   116        8.909933   0.2298997  9.380877   8.270081   7.919935   1.491992   1.494002   10.71991   1.4269     112.8599  
2619.8     0.2238     324.5      17.58      11.29      12.57      9.27       7.87       8.46       5.268      114.9      8.78       0.2304     8.887      8.610001   7.574999   1.506      1.502      10.93      1.426      112.78    
2620       0.224      322        17.88      11.26      12.92      9.06       7.929999   8.679999   5.477      112.9      8.819999   0.2308     8.47       8.36       7.597      1.488      1.511      11.23      1.4245     112.71    
2620.2     0.2248     312        18.74      11.64      13.72      9.089999   8.320001   8.99       6.139      110.3      9.14       0.2313     8.931      8.58       8.11       1.484      1.533      11.56      1.4223     112.6     
2620.4     0.2252997  309.2014   19.24974   12.00981   14.74946   9.569754   8.889707   9.489743   6.85862    106.8017   9.309915   0.2314999  9.626638   10.93867   8.6877     1.507988   1.547992   11.85985   1.421101   112.3901  
2620.6     0.2254999  312.4984   19.49987   12.15992   15.7195    10.71939   9.419726   10.22962   7.775512   102.5021   8.970168   0.2317999  9.045281   8.491076   8.394144   1.518995   1.548      12.12986   1.419801   112.2401  
2620.8     0.2255     322.7      20.31      12.78      16.56      12.11      9.870001   11.68      8.827      96.69999   9.14       0.2315     9.108      8.55       8.092001   1.514      1.525      12.46      1.419      112.08    
2621       0.2256     337.4      21.34      13.71      17.24      12.85      9.99       13.38      9.789001   91.09998   10.08      0.2315     11.556     12.17      9.044      1.5        1.492      12.9       1.419      111.76    
2621.2     0.2253     353.4      21.72      14.74      17.58      13.17      9.859999   14.31      10.558     86.50001   10.77      0.2315     11.705     12.36      8.983001   1.442      1.459      13.44      1.4189     111.67    
2621.4     0.2250001  365.494    22.56957   15.62954   18.46954   13.10004   9.730063   14.37996   10.60797   82.90176   11.04986   0.2314     11.0973    13.05964   8.320319   1.386028   1.437011   14.22959   1.420299   111.61    
2621.6     0.2248001  364.6005   23.72942   16.53953   19.6394    12.67021   9.570078   13.73032   10.16622   81.40073   11.8296    0.2314     13.05994   12.32036   9.350452   1.399993   1.432003   15.1895    1.423898   111.2902  
2621.8     0.2247     348.9      24.1       17.24      21.49      12.22      9.57       12.82      9.381999   82.6       12.57      0.231      15.305     18.7       9.6        1.437      1.454      16.32      1.4288     111.1     
2622       0.2242     352.9      24.18      17.36      20.8       11.4       9.6        11.65      8.349999   84.59999   12.52      0.2312     13.8       12.33      8.59       1.475      1.463      16.69      1.4378     110.97    
2622.2     0.2242     360.5      24.95      16.49      20.37      10.65      9.78       10.17      7.691999   87.39999   11.47      0.2314     11.5       12.33      7.874      1.5        1.454      16.51      1.4453     110.83    
2622.4     0.2240001  355.4026   24.90002   15.16064   19.42047   9.88037    10.48963   8.740662   7.041311   89.19909   10.82031   0.2314     9.450927   19.35564   7.657107   1.5        1.442006   16.13018   1.452696   110.6701  
2622.6     0.2237002  343.2061   24.25032   14.46034   19.48996   9.570151   12.80872   7.970367   6.639195   90.3994    10.4202    0.2314     8.746339   10.38323   8.039804   1.498001   1.442999   15.74019   1.461895   110.67    
2622.8     0.2235     329.9      25.15      14.59      19.43      10.31      15.12      7.48       6.576      88.5       10.49      0.2314     12.318     13.88      8.930001   1.487      1.46       15.85      1.4724     110.2     
2623       0.223      324.9      26.61      14.87      18.33      11.29      17.47      7.42       6.671      84.50001   11.21      0.2306     14.887     12.28      8.239      1.466      1.485      15.82      1.4822     110.04    
2623.2     0.2227     327.6      25.5       14.35      17.7       12.55      20.06      7.429999   6.951      78.2       10.95      0.2301     8.682      17.67      7.232999   1.472      1.515      15.88      1.4907     109.83    
2623.4     0.2222003  333.7969   24.38056   14.23006   17.94987   13.78935   20.59973   7.499965   7.285829   70.10383   10.53021   0.2293004  9.384634   10.12282   6.696258   1.490991   1.528993   16.49969   1.495697   109.5401  
2623.6     0.2217003  326.3037   24.38      16.60872   24.6261    14.99937   20.6       7.90979    7.738766   64.40273   11.80932   0.2285004  18.31987   12.2988    7.601518   1.507992   1.50901    17.52947   1.499898   109.0902  
2623.8     0.2217     303.5      23.84      20.78      25.58      16.54      20.54      8.48       8.397      61.6       15.96      0.228      30.05      13.01      18.875     1.533      1.511      18.95      1.5002     108.45    
