~Version
 VERS              .         3.0                           : CWLS LOG ASCII STANDARD - VERSION 3.0
 WRAP              .         NO                            : ONE LINE PER DEPTH STEP
 DLM               .         SPACE                         : DELIMITING CHARACTER(SPACE TAB OR COMMA)
~Well Information
#_______________________________________________________________________________
#
#PARAMETER_NAME    .UNIT     VALUE                         : DESCRIPTION
#_______________________________________________________________________________
STRT               .M        2610                          : First reference value
STOP               .M        2690                          : Last reference value
STEP               .M        0.2                           : Step increment
NULL               .         -9999                         : Missing value
COMP               .                                       : Company
WELL               .         191P                          : Well name
FLD                .         0317                          : Field
LOC                .         76.994110, 0.452373           : Location
SRVC               .                                       : Service Company
CTRY               .                                       : Country
DATE               .         2002-09-26                    : Service Date
X                  .m        543870<_techsia_br_>          : X or East-West coordinate
Y                  .m        6437555<_techsia_br_>         : Y or North South coordinate
GDAT               .                                       : Geodetic Datum
HZCS               .                                       : Horizontal Co-ordinate System
EREF               .m        119<_techsia_br_>             : 
PROV               .         1                             : Province
UWI                .         031700191P0                   : Unique well id
~Parameter Information Block
#_______________________________________________________________________________
#
#PARAMETER_NAME    .UNIT     VALUE                         : DESCRIPTION
#_______________________________________________________________________________
SET                .         191P                          : 
SET_031700191P0_T_132207_0 .                                       : 
SET_031700191P0_T_132739_0 .                                       : 
STEP_031700191P0_T_132207_0 .M        .2                            : STEP
STEP_031700191P0_T_132739_0 .M        .2                            : STEP
STOP_031700191P0_T_132207_0 .M        2746                          : STOP DEPTH
STOP_031700191P0_T_132739_0 .M        2746                          : STOP DEPTH
STRT_031700191P0_T_132207_0 .M        420                           : START DEPTH
STRT_031700191P0_T_132739_0 .M        10                            : START DEPTH
TLFamily_DS        .         Caliper                       : 
TLFamily_DT        .         Compressional Slowness        : 
TLFamily_GR        .         Gamma Ray                     : 
TLFamily_GZ1       .         Extra Shallow Resistivity     : 
TLFamily_GZ2       .         Shallow Resistivity           : 
TLFamily_GZ3       .         Medium Resistivity            : 
TLFamily_GZ3R      .         Medium Resistivity            : 
TLFamily_GZ4       .         Deep Resistivity              : 
TLFamily_GZ5       .         Extra Deep Resistivity        : 
TLFamily_ILD       .         Conductivity                  : 
TLFamily_LLD       .         Lateral Log Resistivity       : 
TLFamily_MD        .         Measured Depth                : 
TLFamily_MDS       .         Micro Caliper                 : 
TLFamily_MGZ       .         Micro Gradient Resistivity    : 
TLFamily_MLL       .         Micro Lateral Log Resistivity : 
TLFamily_MPZ       .         Micro Potential Resistivity   : 
TLFamily_NGR       .         Neutron Gamma                 : 
TLFamily_NKTD      .         Neutron Far                   : 
TLFamily_PZ        .         Potential Resistivity         : 
TLFamily_RS        .         Mud Resistivity               : 
TLFamily_SP        .         Spontaneous Potential         : 
~Curve Information
#_______________________________________________________________________________
#
#LOGNAME           .UNIT     LOG_ID                        : DESCRIPTION
#_______________________________________________________________________________
MD                 .M                                      :  {F}
DS                 .m                                      :  {F}
DT                 .ms/m                                   :  {F}
GR                 .gapi                                   :  {F}
GZ1                .ohmm                                   :  {F}
GZ2                .ohmm                                   :  {F}
GZ3                .ohmm                                   :  {F}
GZ3R               .ohmm                                   :  {F}
GZ4                .ohmm                                   :  {F}
GZ5                .ohmm                                   :  {F}
ILD                .msim/m                                 :  {F}
LLD                .ohmm                                   :  {F}
MDS                .m                                      :  {F}
MGZ                .ohmm                                   :  {F}
MLL                .ohmm                                   :  {F}
MPZ                .ohmm                                   :  {F}
NGR                .ue                                     :  {F}
NKTD               .ue                                     :  {F}
PZ                 .ohmm                                   :  {F}
RS                 .ohmm                                   :  {F}
SP                 .mv                                     :  {F}
~Ascii
# ...
2638       0.2198     455.3      52.47      40.49001   125        139.91     222.91     227.67     68.42901   6.3        32.52      0.2228     41.006     163.8      25.282     1.65       1.717      106.59     1.2522     25.52     
2638.2     0.2198     454.1      56.28      41.12      125.35     139.94     206.33     232        72.49001   6.5        31.93      0.223      42.237     164.18     23.805     1.701      1.769      103.48     1.2536     27.43     
2638.4     0.2198     446.4038   57.61933   41.11      116.924    139.96     189.578    233.5792   75.49246   7.699347   32.45973   0.2227001  46.03201   203.718    28.40049   1.768966   1.792988   101.6509   1.2542     29.78882  
2638.6     0.2208994  439.0037   58.27967   39.24092   108.2742   142.129    179.7447   235.1693   74.47152   9.998693   24.20356   0.2225001  42.24183   57.94643   26.91072   1.817975   1.762015   92.43438   1.2541     31.89894  
2638.8     0.2201     428.2      58.77      36.72      98.94001   146.21     171.37     235.14     69.36799   12         17.84      0.2222     44.494     36.92      21.85      1.823      1.768      89.37      1.2547     34.04     
2639       0.2201     414.8      59.1       33.90001   94.13      141.64     163.47     224.7701   64.03501   13         20.07      0.2217     35.835     93.33999   21.355     1.818      1.778      84.84      1.2547     35.17     
2639.2     0.2203     401.6      59.54      33.16      96.37001   137.66     159.75     201.29     56.995     12         20.62      0.2214     36.631     75.53      20.64      1.831      1.774      83.89001   1.2546     32.55     
2639.4     0.2203     398.2017   59.94979   35.51878   99.86823   130.6934   161.3692   183.1687   50.77394   9.701031   22.49902   0.2211002  31.35743   49.15055   22.16921   1.854988   1.787993   85.4492    1.2545     30.84085  
2639.6     0.2203     400.7987   60.40977   38.43848   107.3161   128.1013   165.4379   176.1135   48.23125   8.000772   30.97504   0.2211     31.18008   109.7159   21.26344   1.863995   1.783002   88.19859   1.2537     31.32976  
2639.8     0.2203     404.6      60.67      41.51      125        128.93     168.62     176.1001   47.203     7.1        37.91      0.2214     46.463     152.65     24.075     1.856      1.804      91.26999   1.2529     33.39     
2640       0.2199     406.6      60.45      45.53      139.66     134.31     164.05     179.96     46.584     7.6        38.7       0.2216     38.537     145.47     29.093     1.857      1.852      92.94998   1.2514     37.2      
2640.2     0.2201     389.6      60.58      46.48      115.51     140.4      155.46     187.52     45.808     8.9        41.37      0.2221     42.72      147.05     32.76      1.888      1.863      91.23001   1.2513     41.67     
2640.4     0.2202999  338.1257   60.35011   38.3437    97.77817   141.8193   145.2749   196.3654   44.11584   12.69775   48.26628   0.2223998  58.83058   208.9633   38.75375   1.920984   1.849007   86.23245   1.2515     46.29768  
2640.6     0.2203     308.115    58.5409    26.95475   67.17262   138.6416   133.0558   200.7678   40.5537    19.89553   55.82594   0.2227998  52.07817   213.9575   34.08719   1.921      1.85       78.33377   1.2522     50.54787  
2640.8     0.2205     295.2      55.98      23.18      66.07001   127.09     119.56     201.4      35.839     28.6       22.43      0.2234     46.14399   123.86     23.6       1.861      1.725      69.73      1.2529     50.5      
2641       0.2205     310.1      50.14      23.66      65.3       110.74     114.2      194.69     31.828     30.6       10.08      0.2239     28.245     112.46     23.6       1.756      1.617      60.86      1.2529     47.59     
2641.2     0.2203     339.1      30.61      26.41      63.66999   100.21     114.22     146.41     28.895     30.4       15.59      0.2241     31.566     69.58001   30.06      1.653      1.565      53.39      1.2535     44.93     
2641.4     0.2203     339.1      28.4011    30.17799   68.28761   100.4099   115.0396   116.4833   27.99244   26.50182   28.29156   0.2242999  36.97908   86.56055   30.14996   1.601026   1.585989   52.75032   1.254799   43.87053  
2641.6     0.2203     324.6073   28.07017   34.19786   79.90372   100.2301   112.6512   111.4524   28.80158   19.20309   24.61172   0.2245999  34.15236   70.84709   29.93011   1.616992   1.60499    58.30707   1.2555     44.03992  
2641.8     0.2203     334.4      27.99      36.57      92.80001   102.74     107.43     114.62     29.738     13.1       23.24      0.2246     42.34999   208.75     35.2       1.624      1.596      64.37      1.2561     45.71     
2642       0.2204     359.5      28.85      38.56      98.05      107.57     103.3      122.84     30.515     12.8       51.41      0.2235     48.79601   109.41     40.743     1.617      1.582      71.42      1.2553     48.97     
2642.2     0.2203     371.8      29.66      40.01      104.09     107.6      95.16998   127.36     31.292     15.2       59.71001   0.223      53.033     214.25     44.145     1.612      1.595      74.69001   1.2539     52.88     
2642.4     0.2202     355.3082   30.98934   40.07996   101.3814   105.2212   81.23643   130.5284   31.33198   19.09782   62.33867   0.2220005  55.03897   135.0012   43.30741   1.611      1.624985   72.82092   1.250302   58.00743  
2642.6     0.2203     359.0981   32.13942   37.67117   96.8622    101.032    66.00685   130.6      30.45343   22.69803   46.44683   0.2210005  48.34813   100.5948   31.99484   1.612      1.650987   68.38216   1.246502   65.64618  
2642.8     0.22       344.3      32.28      35.89      102.96     100.38     71.55      126.53     28.497     26.9       37.88      0.2202     41.3       74.33001   31.487     1.635      1.679      62.28      1.2429     73.61     
2643       0.22       297.7      27.2       34.34      96.37001   100.06     84.55001   120.32     25.198     33.5       32.37      0.2199     39.145     68.03001   30.42      1.663      1.659      45.83      1.2385     81.13     
2643.2     0.2201     240.9      18.7       29.21      38.48      108.09     85.08999   111.55     21.708     42.7       23.86      0.2201     29.99      61.72999   21.263     1.693      1.646      33.52      1.2328     88.62     
2643.4     0.2202     222.1094   17.32069   20.3037    23.63576   94.68627   48.23368   100.5652   17.48889   57.09171   22.92046   0.2213993  28.3408    99.34636   23.20898   1.713989   1.647999   23.82407   1.226303   93.06778  
2643.6     0.2210996  216.5028   14.68132   11.7932    13.26383   77.74767   36.03525   97.71139   14.18748   81.18571   18.28207   0.223399   28.91272   20.9163    17.89433   1.688013   1.592028   19.57192   1.220603   96.62822  
2643.8     0.2212     249.1      15.02      6.93       13.01      54.02999   29.95      54.3       10.866     131.7      10.52      0.2255     3.381      14.37      3.79       1.593      1.574      17.82      1.2143     97.95     
2644       0.2211     288.3      25.04      6.909999   13.36      37.25      28.05      32.84      6.172      146.6      7.030001   0.227      3.531      3.43       4.84       1.501      1.68       11.63      1.2081     97.31     
2644.2     0.2225     296.2      27.63      8.739999   14.78      27.91      25.83      22.23      4.632      149.7      7.170001   0.2276     4.981      7.789999   6.940001   1.505      1.789      11.32      1.2031     89.1      
2644.4     0.2227999  238.3289   33.73695   13.10734   16.41913   24.59156   23.04132   20.10101   4.283167   134.4072   8.959002   0.2268004  7.429514   6.980383   7.939466   1.562971   1.873958   11.63984   1.197303   70.55927  
2644.6     0.2211009  234.5019   33.69003   17.63738   18.27902   24.31014   21.80061   21.46929   4.659804   97.91552   14.83626   0.224701   5.931668   14.8344    12.48717   1.654954   1.955959   16.26727   1.191603   55.89733  
2644.8     0.2174     246        16.98      21.86      27.81      25.43      20.36      22.58      5.111      71.19999   22.72      0.2212     12.881     45.15      18.34      1.879      1.959      22.25      1.1858     48.56     
