~Version
 VERS              .         3.0                           : CWLS LOG ASCII STANDARD - VERSION 3.0
 WRAP              .         NO                            : ONE LINE PER DEPTH STEP
 DLM               .         SPACE                         : DELIMITING CHARACTER(SPACE TAB OR COMMA)
~Well Information
#_______________________________________________________________________________
#
#PARAMETER_NAME    .UNIT     VALUE                         : DESCRIPTION
#_______________________________________________________________________________
STRT               .M        2610                          : First reference value
STOP               .M        2690                          : Last reference value
STEP               .M        0.2                           : Step increment
NULL               .         -9999                         : Missing value
COMP               .                                       : Company
WELL               .         191P                          : Well name
FLD                .         0317                          : Field
LOC                .         76.994110, 0.452373           : Location
SRVC               .                                       : Service Company
CTRY               .                                       : Country
DATE               .         2002-09-26                    : Service Date
X                  .m        543870<_techsia_br_>          : X or East-West coordinate
Y                  .m        6437555<_techsia_br_>         : Y or North South coordinate
GDAT               .                                       : Geodetic Datum
HZCS               .                                       : Horizontal Co-ordinate System
EREF               .m        119<_techsia_br_>             : 
PROV               .         1                             : Province
UWI                .         031700191P0                   : Unique well id
~Parameter Information Block
#_______________________________________________________________________________
#
#PARAMETER_NAME    .UNIT     VALUE                         : DESCRIPTION
#_______________________________________________________________________________
SET                .         191P                          : 
SET_031700191P0_T_132207_0 .                                       : 
SET_031700191P0_T_132739_0 .                                       : 
STEP_031700191P0_T_132207_0 .M        .2                            : STEP
STEP_031700191P0_T_132739_0 .M        .2                            : STEP
STOP_031700191P0_T_132207_0 .M        2746                          : STOP DEPTH
STOP_031700191P0_T_132739_0 .M        2746                          : STOP DEPTH
STRT_031700191P0_T_132207_0 .M        420                           : START DEPTH
STRT_031700191P0_T_132739_0 .M        10                            : START DEPTH
TLFamily_DS        .         Caliper                       : 
TLFamily_DT        .         Compressional Slowness        : 
TLFamily_GR        .         Gamma Ray                     : 
TLFamily_GZ1       .         Extra Shallow Resistivity     : 
TLFamily_GZ2       .         Shallow Resistivity           : 
TLFamily_GZ3       .         Medium Resistivity            : 
TLFamily_GZ3R      .         Medium Resistivity            : 
TLFamily_GZ4       .         Deep Resistivity              : 
TLFamily_GZ5       .         Extra Deep Resistivity        : 
TLFamily_ILD       .         Conductivity                  : 
TLFamily_LLD       .         Lateral Log Resistivity       : 
TLFamily_MD        .         Measured Depth                : 
TLFamily_MDS       .         Micro Caliper                 : 
TLFamily_MGZ       .         Micro Gradient Resistivity    : 
TLFamily_MLL       .         Micro Lateral Log Resistivity : 
TLFamily_MPZ       .         Micro Potential Resistivity   : 
TLFamily_NGR       .         Neutron Gamma                 : 
TLFamily_NKTD      .         Neutron Far                   : 
TLFamily_PZ        .         Potential Resistivity         : 
TLFamily_RS        .         Mud Resistivity               : 
TLFamily_SP        .         Spontaneous Potential         : 
~Curve Information
#_______________________________________________________________________________
#
#LOGNAME           .UNIT     LOG_ID                        : DESCRIPTION
#_______________________________________________________________________________
MD                 .M                                      :  {F}
DS                 .m                                      :  {F}
DT                 .ms/m                                   :  {F}
GR                 .gapi                                   :  {F}
GZ1                .ohmm                                   :  {F}
GZ2                .ohmm                                   :  {F}
GZ3                .ohmm                                   :  {F}
GZ3R               .ohmm                                   :  {F}
GZ4                .ohmm                                   :  {F}
GZ5                .ohmm                                   :  {F}
ILD                .msim/m                                 :  {F}
LLD                .ohmm                                   :  {F}
MDS                .m                                      :  {F}
MGZ                .ohmm                                   :  {F}
MLL                .ohmm                                   :  {F}
MPZ                .ohmm                                   :  {F}
NGR                .ue                                     :  {F}
NKTD               .ue                                     :  {F}
PZ                 .ohmm                                   :  {F}
RS                 .ohmm                                   :  {F}
SP                 .mv                                     :  {F}
~Ascii
2610.0     0.2237     308.8      15.01      10.3       12.42      8.31       8.09       6.309999   6.633999   136.3      7.66       0.2291     5.839      6.7        6.348      1.482      1.52       10.36      1.3785     111.54    
2610.2     0.224      321.6      15.51      10.14      11.97      8.65       8.1        6.489999   6.741      133.9      7.8        0.2292     6.869      6.73       6.546      1.431      1.492      9.88       1.3812     111.87    
2610.4     0.2236002  330.4955   16.06972   10.3299    11.53022   9.029805   8.579753   6.689898   6.9389     130.8015   7.91994    0.2289001  7.711554   6.949888   6.597973   1.464983   1.480006   9.710084   1.384099   112.0299  
2610.6     0.2231003  336.0972   16.4798    10.57987   11.18017   9.369826   8.999785   6.989847   7.158888   128.4012   8.029944   0.2278005  7.327188   7.219862   6.45607    1.50398    1.476002   9.660026   1.388998   112.04    
2610.8     0.2228     337.4      17.35      10.83      11.36      9.83       9.28       7.590001   7.453001   127.8      7.96       0.2267     7.161      7.3        6.639999   1.459      1.456      9.66       1.3953     112.04    
2611       0.2221     338.7      18.24      11.08      11.81      10.19      8.96       7.88       7.789999   126.3      7.96       0.2249     7.332      7.33       6.791      1.416      1.443      9.719999   1.4003     111.89    
2611.2     0.2219     338.7      18.68      11.36      12.32      10.3       8.270001   8.16       7.974      124.3      8.270001   0.2235     7.663      7.49       6.753      1.418      1.424      9.91       1.4052     111.57    
2611.4     0.2219     338.7      18.61003   11.7498    12.56987   9.920187   7.430397   8.349904   8.005983   122.301    8.599833   0.2224005  8.403612   8.029721   6.704025   1.432992   1.408008   10.13988   1.407599   111.4101  
2611.6     0.2219     342.5981   19.27966   11.90992   12.54001   9.400252   6.620383   8.46994    7.854075   121.0007   8.530035   0.2219003  8.888751   8.969504   6.926887   1.448992   1.415996   10.38987   1.409399   111.2601  
2611.8     0.2219     342.6      19.88      11.94      12.53      8.85       6.489999   8.42       7.453001   120.2      8.349999   0.2214     8.908      9.28       7.13       1.468      1.431      10.64      1.4107     111.26    
2612       0.2215     339.1      19.78      11.84      12.57      8.44       6.66       8.01       6.954      119.2      8.429999   0.2211     8.649      8.4        7.15       1.45       1.45       10.81      1.4099     111.26    
2612.2     0.2219     334.2      19.14      11.74      12.72      8.2        6.98       7.900001   6.713      118.9      8.67       0.2211     8.067      8.570001   7.018001   1.436      1.467      10.94      1.409      111.27    
2612.4     0.2219     330.6018   19.42986   11.71002   12.9199    8.2        7.269853   7.870016   6.571071   119.1999   8.640017   0.2208001  7.829118   9.05975    6.870074   1.431002   1.481992   11.03995   1.407501   111.4299  
2612.6     0.2219     328.701    19.77983   11.73998   13.16987   8.31994    7.619821   7.899985   6.571      120.4993   8.480079   0.2203003  7.800015   8.750153   6.892989   1.434998   1.482      10.96004   1.405301   111.44    
2612.8     0.2219     331.2      18.94      11.77      13.45      8.51       8          7.94       6.468      121.5      8.4        0.2197     7.761      8.19       6.815      1.448      1.472      10.91      1.4031     111.61    
2613       0.2219     337.7      18.95      11.87      13.17      8.63       8.36       7.97       6.249      122        8.48       0.2188     7.636      8.06       6.632      1.437      1.47       10.77      1.3994     111.93    
2613.2     0.2219     342.8      19.03      11.9       12.64      8.76       8.71       7.97       5.934      122.3      8.48       0.2179     7.376999   8.69       6.6        1.417      1.478      10.59      1.3971     112.25    
2613.4     0.2219     345.3987   18.45029   11.85003   12.37013   8.710026   8.899903   7.900035   5.650138   122.1001   8.320079   0.2175002  7.409984   8.65002    6.681959   1.411003   1.493992   10.43008   1.394102   112.25    
2613.6     0.2219     346.7993   18.09018   11.57014   12.29004   8.490108   8.840031   7.78006    5.455096   122        8.33999    0.2182996  7.735834   8.340153   6.82093    1.422994   1.506993   10.31006   1.390702   112.5798  
2613.8     0.2224     341.9      17.68      11.39      12.63      8.52       8.69       7.309999   5.296      122.6      8.48       0.2179     8.024999   8.19       7.09       1.45       1.496      10.34      1.3877     112.4     
2614       0.2222     334        18.11      11.45      13.04      8.52       8.5        7.07       5.199999   123.6      8.320001   0.2179     8.1        8.610001   7.308001   1.47       1.479      10.44      1.3847     112.75    
2614.2     0.2229     327.6      18.36      11.32      13.13      8.62       8.349999   6.829999   5.264      125        8.170001   0.2174     8.066      7.929999   7.077001   1.487      1.486      10.41      1.3811     112.75    
2614.4     0.2229     328.8994   18.64985   11.04014   12.62025   8.73994    8.300025   6.71006    5.327968   125.9995   8.179996   0.2169003  8.246908   7.780075   6.923076   1.491997   1.493996   10.29006   1.379001   112.76    
2614.6     0.2229     341.6936   18.44011   10.90007   12.05028   8.710016   8.429934   6.719995   5.391968   127.1994   8.249965   0.2173997  8.062093   7.76001    6.748086   1.475008   1.480007   10.17006   1.377201   112.76    
2614.8     0.2229     345.5      18.2       10.89      12.13      8.79       8.55       6.87       5.456      125.3      7.99       0.2184     7.775      8.2        7          1.462      1.442      10.09      1.3771     112.76    
2615       0.2229     334.1      18.56      11.09      12.26      8.99       8.59       6.84       5.488      124.4      8.12       0.2192     8.249      7.33       7.285      1.45       1.407      10.17      1.3783     112.66    
2615.2     0.2228     326.7      19.4       11.28      12.39      9.15       8.52       6.909999   5.52       122.1      8.47       0.2204     8.183999   8.02       7.204      1.42       1.424      10.31      1.3808     112.53    
2615.4     0.2228     328.9988   19.68986   11.25001   12.64987   9.100025   8.34009    7.149879   5.464027   118.3019   8.460005   0.2210997  7.436356   8.089965   6.682251   1.407006   1.453985   10.48991   1.383998   112.2901  
2615.6     0.2228     324.5023   18.15077   11.30997   13.15974   8.960069   8.020158   7.369888   5.425019   115.2015   8.430015   0.2213998  8.314535   7.900095   6.818931   1.448979   1.471991   10.69989   1.388898   112.3     
2615.8     0.2228     315.4      18.13      11.71      13.31      8.63       7.7        7.38       5.17       114.2      8.83       0.2211     11.725     8.44       9.084999   1.483      1.498      10.83      1.3938     111.98    
2616       0.2226     293.2      18.95      12.16      13.19      8.34       7.48       7.18       4.887      116.1      9.48       0.2209     10.915     8.260001   10.241     1.529      1.533      10.96      1.3987     111.83    
2616.2     0.2228     288.3      19.28      12.36      12.93      8.18       7.63       6.89       4.650001   119.1      9.27       0.2206     7.852      12.62      9.024      1.568      1.558      10.96      1.4033     111.67    
2616.4     0.2228     299.5944   18.12058   11.73031   12.60016   8.150015   7.939842   6.650118   4.628011   121.5987   8.16052    0.2203002  7.426207   7.651915   7.328763   1.565002   1.584987   10.77009   1.407798   111.67    
2616.6     0.2228     313.493    17.18047   10.57055   12.32014   8.080034   8.339795   6.679986   4.501062   123.0993   8.12002    0.2198002  7.917747   8.319651   7.06413    1.533016   1.586999   10.49014   1.412698   111.68    
2616.8     0.2228     325.2      17.01      10.52      12.02      8.02       8.73       6.77       4.373      122.2      8.260001   0.2195     9.748999   7.929999   8.305      1.5        1.552      10.2       1.4161     111.68    
