~Version
 VERS              .         3.0                           : CWLS LOG ASCII STANDARD - VERSION 3.0
 WRAP              .         NO                            : ONE LINE PER DEPTH STEP
 DLM               .         SPACE                         : DELIMITING CHARACTER(SPACE TAB OR COMMA)
~Well Information
#_______________________________________________________________________________
#
#PARAMETER_NAME    .UNIT     VALUE                         : DESCRIPTION
#_______________________________________________________________________________
STRT               .M        2610                          : First reference value
STOP               .M        2690                          : Last reference value
STEP               .M        0.2                           : Step increment
NULL               .         -9999                         : Missing value
COMP               .                                       : Company
WELL               .         191P                          : Well name
FLD                .         0317                          : Field
LOC                .         76.994110, 0.452373           : Location
SRVC               .                                       : Service Company
CTRY               .                                       : Country
DATE               .         2002-09-26                    : Service Date
X                  .m        543870<_techsia_br_>          : X or East-West coordinate
Y                  .m        6437555<_techsia_br_>         : Y or North South coordinate
GDAT               .                                       : Geodetic Datum
HZCS               .                                       : Horizontal Co-ordinate System
EREF               .m        119<_techsia_br_>             : 
PROV               .         1                             : Province
UWI                .         031700191P0                   : Unique well id
~Parameter Information Block
#_______________________________________________________________________________
#
#PARAMETER_NAME    .UNIT     VALUE                         : DESCRIPTION
#_______________________________________________________________________________
SET                .         191P                          : 
SET_031700191P0_T_132207_0 .                                       : 
SET_031700191P0_T_132739_0 .                                       : 
STEP_031700191P0_T_132207_0 .M        .2                            : STEP
STEP_031700191P0_T_132739_0 .M        .2                            : STEP
STOP_031700191P0_T_132207_0 .M        2746                          : STOP DEPTH
STOP_031700191P0_T_132739_0 .M        2746                          : STOP DEPTH
STRT_031700191P0_T_132207_0 .M        420                           : START DEPTH
STRT_031700191P0_T_132739_0 .M        10                            : START DEPTH
TLFamily_DS        .         Caliper                       : 
TLFamily_DT        .         Compressional Slowness        : 
TLFamily_GR        .         Gamma Ray                     : 
TLFamily_GZ1       .         Extra Shallow Resistivity     : 
TLFamily_GZ2       .         Shallow Resistivity           : 
TLFamily_GZ3       .         Medium Resistivity            : 
TLFamily_GZ3R      .         Medium Resistivity            : 
TLFamily_GZ4       .         Deep Resistivity              : 
TLFamily_GZ5       .         Extra Deep Resistivity        : 
TLFamily_ILD       .         Conductivity                  : 
TLFamily_LLD       .         Lateral Log Resistivity       : 
TLFamily_MD        .         Measured Depth                : 
TLFamily_MDS       .         Micro Caliper                 : 
TLFamily_MGZ       .         Micro Gradient Resistivity    : 
TLFamily_MLL       .         Micro Lateral Log Resistivity : 
TLFamily_MPZ       .         Micro Potential Resistivity   : 
TLFamily_NGR       .         Neutron Gamma                 : 
TLFamily_NKTD      .         Neutron Far                   : 
TLFamily_PZ        .         Potential Resistivity         : 
TLFamily_RS        .         Mud Resistivity               : 
TLFamily_SP        .         Spontaneous Potential         : 
~Curve Information
#_______________________________________________________________________________
#
#LOGNAME           .UNIT     LOG_ID                        : DESCRIPTION
#_______________________________________________________________________________
MD                 .M                                      :  {F}
DS                 .m                                      :  {F}
DT                 .ms/m                                   :  {F}
GR                 .gapi                                   :  {F}
GZ1                .ohmm                                   :  {F}
GZ2                .ohmm                                   :  {F}
GZ3                .ohmm                                   :  {F}
GZ3R               .ohmm                                   :  {F}
GZ4                .ohmm                                   :  {F}
GZ5                .ohmm                                   :  {F}
ILD                .msim/m                                 :  {F}
LLD                .ohmm                                   :  {F}
MDS                .m                                      :  {F}
MGZ                .ohmm                                   :  {F}
MLL                .ohmm                                   :  {F}
MPZ                .ohmm                                   :  {F}
NGR                .ue                                     :  {F}
NKTD               .ue                                     :  {F}
PZ                 .ohmm                                   :  {F}
RS                 .ohmm                                   :  {F}
SP                 .mv                                     :  {F}
~Ascii
# ...
2645       0.2159     247        11.52      25.67      37.63      25.92      19.93      23.53      5.612      56.7       25.16      0.2125     14.231     37.04      9.439999   1.969      1.911      26.7       1.1801     44.67     
2645.2     0.2159     241.4      10.56      25.73      43.33      25.6       17.86      21.94      5.887001   57         25.01      0.2054     4.081      37.79      8.64       1.945      1.866      32.14      1.1744     43.94     
2645.4     0.2159     246.1976   10.00028   25.93989   49.09693   25.29015   16.24077   23.44922   5.665109   55.20088   25.05997   0.2044005  3.331338   24.02544   9.089768   1.90502    1.880993   35.21839   1.168703   44.9295   
2645.6     0.2160999  250.0981   7.92104    26.97947   54.2473    23.79073   13.3713    23.94975   4.948335   52.60127   22.28131   0.2125959  3.830732   50.15152   10.98895   1.906999   1.895993   35.31995   1.164202   45.95948  
2645.8     0.2169     224.5      7.62       26.48      51.04      22.07      13.87      22.35      4.323      59.4       23.62      0.2205     5.231      66.88      9.49       1.927      1.857      34.38      1.1599     45.41     
2646       0.2169     210.1      7.65       24.75      44.54      20.82      18.24      20.76      3.719      72.4       25.42      0.21       4.231      31.94      11.29      1.909      1.809      32.82      1.1555     44.62     
2646.2     0.2159     202        7.79       22.4       39.55      20.5       26.92      20.4       3.187      85.09999   18.29      0.2217     8.081      40.98      16.79      1.867      1.759      30.41      1.1519     43.18     
2646.4     0.2141009  205.898    8.24977    20.38096   35.47193   21.41953   33.47635   19.88026   2.775192   93.99533   16.97063   0.2192013  16.12543   25.45606   9.142777   1.874996   1.716021   27.64132   1.150401   42.87016  
2646.6     0.2142     226.4897   8.839705   19.7903    31.95166   23.43894   33.18015   19.43022   2.648062   101.0964   14.80101   0.2023084  4.833913   15.83376   7.790622   1.837019   1.684016   24.58144   1.148901   45.11887  
2646.8     0.2158     245.1      9.55       19.1       29.17      25.51      30.53      16.7       2.654      104.1      13.74      0.2045     3.281      14.51      7.84       1.777      1.665      22.83      1.1488     49.18     
2647       0.2169     265.5      10.39      18         27.38      26.29      26.87      15.36      2.841      105.2      13.43      0.209      3.031      14.38      8.239999   1.685      1.666      20.55      1.1507     53.84     
2647.2     0.2189     277.3      11.06      18.13      26.92      26.78      23.61      14.83      2.965      104.9      13.3       0.2152     3.381      15.55      9.99       1.665      1.651      19.97      1.1535     58.48     
2647.4     0.2179005  278.0996   11.47979   18.94958   23.79147   26.78      19.79175   14.84999   3.204875   105.2998   13.3       0.219098   6.279057   16.82933   10.08995   1.668998   1.586032   17.52114   1.156199   63.44752  
2647.6     0.2165007  270.8036   11.19014   18.92002   18.69226   26.28025   17.84093   15.45969   3.710728   109.298    13.6998    0.2188001  5.031558   13.96131   8.540712   1.665002   1.521033   16.88031   1.158999   68.42751  
2647.8     0.2163     272.4      10.66      13.16      12.96      24.28      14.76      15.85      4.403      124.3      12.35      0.2137     4.531      13.01      9.14       1.641      1.48       13.47      1.1617     77.45     
2648       0.2168     275.7      10.65      9.1        10.54      20.75      11.95      15.95      5.304      148.7      9.719999   0.2175     14.431     19.27      10.24      1.619      1.453      12.26      1.1645     84.92     
2648.2     0.2182     264.1      11.11      7.55       7.89       17.73      8.91       15.79      6.650001   160.9      7.99       0.2234     7.731      6.98       7.190001   1.577      1.464      9.95       1.1658     89.71     
2648.4     0.2191995  270.6967   11.98956   7.040247   7.700094   14.93128   7.360703   15.03037   8.44499    166.8969   7.550214   0.2276978  5.931786   5.740561   7.140024   1.543017   1.56295    8.8905     1.167099   90.13979  
2648.6     0.2195998  285.3926   13.40929   7.38982    8.779424   12.42114   7.040157   14.80011   10.22702   170.698    7.45005    0.2298989  8.329585   5.100302   7.189976   1.505019   1.650956   8.83003    1.168499   86.3419   
2648.8     0.2196     294.6      14.52      9.22       14.81      10.88      6.99       15.4       11.71      169.7      7.7        0.2303     5.981      5.48       6.34       1.487      1.746      9.309999   1.1692     80.78     
2649       0.2196     302        14.33      12.66      16.95      13.22      7.35       17.81      13.457     159.7      9.37       0.23       10.731     9.089999   13.14      1.535      1.825      10.57      1.1691     76.36     
2649.2     0.2196     291.4      12.02      15.39      17.85      15.78      7.64       23.47      23.359     128.2      11.1       0.2292     14.631     26.92      14.74      1.567      1.803      13.09      1.169      74.3      
2649.4     0.2194001  266.1126   10.4108    18.04856   15.89093   20.5273    7.390122   27.95755   24.36348   107.2096   14.9178    0.2268012  15.63049   45.78783   14.64005   1.598984   1.758023   14.83907   1.1683     74.66982  
2649.6     0.2194     231.9171   9.840285   17.6402    15.68011   19.73039   7.030176   30.73854   23.47344   92.107     25.43321   0.2243012  16.63049   181.2552   19.63712   1.634982   1.666046   15.70955   1.1675     76.79893  
2649.8     0.2194     217.3      9.62       15.79      17.21      12.58      6.87       24.75      21.349     95.6       12.78      0.224      15.831     15.16      15.39      1.755      1.593      17.12      1.166      77.24     
2650       0.2194     187.1      9.58       13.94      18.44      9.64       7.33       15.05      18.706     97.2       11.65      0.2265     16.831     7.7        12.59      1.815      1.593      16.98      1.1645     75.48     
2650.2     0.2204     190.5      10.67      13.07      18.51      8.15       7.91       12.15      13.952     96.6       11.98      0.2259     11.531     8.14       11.14      1.773      1.671      16.31      1.163      74.08     
2650.4     0.2210997  195.4975   13.4686    12.68019   17.86032   7.200445   8.969437   10.68069   11.10027   98.49905   11.87006   0.223801   13.57989   10.86843   12.88906   1.709032   1.642015   15.63034   1.1624     74.04002  
2650.6     0.2213998  200.4975   12.70039   12.73997   17.28028   7.259971   11.15878   10.46011   10.6832    102.498    11.76005   0.2221009  12.83136   12.96885   14.08937   1.657026   1.599021   15.24019   1.1623     74.67968  
2650.8     0.2216     205.5      11.81      13.23      17.41      8.679999   14.43      10.58      11.282     107.7      11.24      0.2214     13.381     8.49       15.44      1.617      1.628      15.31      1.1623     73.71     
2651       0.2219     213.1      11.47      14.17      18.49      10.76      18.07      11.23      13.095     111.3      11.97      0.2232     19.831     8.11       16.29      1.595      1.627      15.7       1.1636     72.22     
2651.2     0.2227     220.5      11.31      14.79      21.73      14.35      32.89      13.04      26.493     110.2      12.59      0.226      16.231     11.86      17.79      1.627      1.61       16.25      1.1642     71.28     
2651.4     0.2231997  240.7899   10.84023   14.30024   24.10875   19.84678   34.48919   15.2688    34.65935   96.20651   11.05072   0.2274993  18.08002   19.66503   15.44109   1.593017   1.617996   16.0501    1.165599   70.02063  
2651.6     0.2236997  263.7885   11.24979   13.59035   23.47032   29.19436   32.89079   20.7768    43.24521   76.80864   10.08046   0.2281997  15.83205   15.54183   11.69163   1.602995   1.601008   15.47028   1.169798   63.53325  
2651.8     0.2237     291.3      11.38      13.31      18.1       34.84      20.9       32.17      54.329     61.2       10.42      0.2282     16.231     12.31      11.74      1.609      1.53       15.35      1.1747     59.55     
