~Version
 VERS              .         3.0                           : CWLS LOG ASCII STANDARD - VERSION 3.0
 WRAP              .         NO                            : ONE LINE PER DEPTH STEP
 DLM               .         SPACE                         : DELIMITING CHARACTER(SPACE TAB OR COMMA)
~Well Information
#_______________________________________________________________________________
#
#PARAMETER_NAME    .UNIT     VALUE                         : DESCRIPTION
#_______________________________________________________________________________
STRT               .M        2610                          : First reference value
STOP               .M        2690                          : Last reference value
STEP               .M        0.2                           : Step increment
NULL               .         -9999                         : Missing value
COMP               .                                       : Company
WELL               .         191P                          : Well name
FLD                .         0317                          : Field
LOC                .         76.994110, 0.452373           : Location
SRVC               .                                       : Service Company
CTRY               .                                       : Country
DATE               .         2002-09-26                    : Service Date
X                  .m        543870<_techsia_br_>          : X or East-West coordinate
Y                  .m        6437555<_techsia_br_>         : Y or North South coordinate
GDAT               .                                       : Geodetic Datum
HZCS               .                                       : Horizontal Co-ordinate System
EREF               .m        119<_techsia_br_>             : 
PROV               .         1                             : Province
UWI                .         031700191P0                   : Unique well id
~Parameter Information Block
#_______________________________________________________________________________
#
#PARAMETER_NAME    .UNIT     VALUE                         : DESCRIPTION
#_______________________________________________________________________________
SET                .         191P                          : 
SET_031700191P0_T_132207_0 .                                       : 
SET_031700191P0_T_132739_0 .                                       : 
STEP_031700191P0_T_132207_0 .M        .2                            : STEP
STEP_031700191P0_T_132739_0 .M        .2                            : STEP
STOP_031700191P0_T_132207_0 .M        2746                          : STOP DEPTH
STOP_031700191P0_T_132739_0 .M        2746                          : STOP DEPTH
STRT_031700191P0_T_132207_0 .M        420                           : START DEPTH
STRT_031700191P0_T_132739_0 .M        10                            : START DEPTH
TLFamily_DS        .         Caliper                       : 
TLFamily_DT        .         Compressional Slowness        : 
TLFamily_GR        .         Gamma Ray                     : 
TLFamily_GZ1       .         Extra Shallow Resistivity     : 
TLFamily_GZ2       .         Shallow Resistivity           : 
TLFamily_GZ3       .         Medium Resistivity            : 
TLFamily_GZ3R      .         Medium Resistivity            : 
TLFamily_GZ4       .         Deep Resistivity              : 
TLFamily_GZ5       .         Extra Deep Resistivity        : 
TLFamily_ILD       .         Conductivity                  : 
TLFamily_LLD       .         Lateral Log Resistivity       : 
TLFamily_MD        .         Measured Depth                : 
TLFamily_MDS       .         Micro Caliper                 : 
TLFamily_MGZ       .         Micro Gradient Resistivity    : 
TLFamily_MLL       .         Micro Lateral Log Resistivity : 
TLFamily_MPZ       .         Micro Potential Resistivity   : 
TLFamily_NGR       .         Neutron Gamma                 : 
TLFamily_NKTD      .         Neutron Far                   : 
TLFamily_PZ        .         Potential Resistivity         : 
TLFamily_RS        .         Mud Resistivity               : 
TLFamily_SP        .         Spontaneous Potential         : 
~Curve Information
#_______________________________________________________________________________
#
#LOGNAME           .UNIT     LOG_ID                        : DESCRIPTION
#_______________________________________________________________________________
MD                 .M                                      :  {F}
DS                 .m                                      :  {F}
DT                 .ms/m                                   :  {F}
GR                 .gapi                                   :  {F}
GZ1                .ohmm                                   :  {F}
GZ2                .ohmm                                   :  {F}
GZ3                .ohmm                                   :  {F}
GZ3R               .ohmm                                   :  {F}
GZ4                .ohmm                                   :  {F}
GZ5                .ohmm                                   :  {F}
ILD                .msim/m                                 :  {F}
LLD                .ohmm                                   :  {F}
MDS                .m                                      :  {F}
MGZ                .ohmm                                   :  {F}
MLL                .ohmm                                   :  {F}
MPZ                .ohmm                                   :  {F}
NGR                .ue                                     :  {F}
NKTD               .ue                                     :  {F}
PZ                 .ohmm                                   :  {F}
RS                 .ohmm                                   :  {F}
SP                 .mv                                     :  {F}
~Ascii
# ...
2659       0.2167     216.6      8.2        24.64      55.79      33.77      33.82      22         0.766      74.5       20.22      0.2211     9.881      52.23      11.54      1.991      1.987      34.87      1.2041     28.64     
2659.2     0.2165     230.6      8.8        25.43      58.27      35.54      36.19      22.76      0.932      81.59999   17.11      0.2079     13.281     80.22001   9.64       1.961      1.952      34.72      1.1997     30.07     
2659.4     0.2194985  242.3941   9.409695   26.94922   56.20102   36.97927   37.10953   23.89942   1.074923   87.79681   15.60072   0.2110984  4.183416   18.67361   12.43842   1.931015   1.961995   33.56057   1.194003   31.33937  
2659.6     0.2212991  239.2016   8.55043    27.01996   50.7126    38.7391    35.81064   24.53968   1.184942   95.9957    16.91931   0.2174968  4.830651   55.46975   20.48489   1.946992   1.969996   32.01075   1.188303   32.82926  
2659.8     0.2207     208.2      8.5        25.91      45.05      39.86      34.08      23.74      1.321      103.2      22.76      0.2235     19.031     112.06     15.99      1.953      1.941      29.69      1.1833     34.44     
2660       0.2184     225.2      9.27       21.91      39.12      38.99      32.53      20.79      1.437      111.6      17.72      0.2189     18.131     33.16      9.04       1.931      1.86       27.61      1.1783     35.88     
2660.2     0.2185     256.9      9.38       20.03      35.71      36.81001   31.41      17.09      1.377      120.1      13.3       0.2113     4.381      21.71      7.94       1.899      1.767      24.98      1.1758     36.68     
2660.4     0.2192996  272.2923   8.830275   19.2104    34.16076   34.25123   28.63133   13.67153   1.5639     125.2973   12.94018   0.2071021  2.831618   17.85174   7.94       1.769065   1.709029   23.12089   1.174101   36.00034  
2660.6     0.2176009  264.4039   9.50966    19.07007   32.59077   31.47133   26.27113   12.14072   1.749902   128.5983   12.39027   0.2048011  2.831      14.81138   7.94       1.701034   1.703003   21.8806    1.172701   34.76062  
2660.8     0.217      256.1      9.11       19.96      32.34999   29.46      24.28      10.77      2.122      130.4      11.85      0.2048     3.181      16.4       8.04       1.687      1.708      21.55      1.1734     34.11     
2661       0.2172     266.3      8.44       20.66      32.47001   27.88      22.39      9.920001   2.504      131.1      13.26      0.2053     2.831      15.21      7.94       1.693      1.7        21.72      1.175      35.52     
2661.2     0.2171     277        8.49       20.61      32.15001   26.62      20.97      9.419999   2.786      132.4      13.92      0.2041     2.931      9.78       7.64       1.683      1.686      21.73      1.1778     37.88     
2661.4     0.217      276.9001   8.80984    20.11025   30.81066   25.28065   20.3603    9.090161   3.004887   132.6999   13.92      0.2028007  2.931      9.989894   7.54005    1.673005   1.675005   21.03035   1.179899   40.77855  
2661.6     0.2168001  275.3008   9.039885   19.51029   28.48112   23.57083   19.39047   8.840123   3.285853   133.1998   13.42025   0.2019005  3.230843   11.25933   7.789872   1.659007   1.667004   19.83058   1.181299   40.75002  
2661.8     0.2182     273.4      9.53       17.92      26.68      21.46      18.76      8.679999   3.664      133        12.36      0.2041     2.831      12.37      8.39       1.651      1.668      19.34      1.1827     37.18     
2662       0.2198     261.6      9.94       17.45      25.3       19.93      17.14      8.62       4.041      133        11.7       0.2063     3.281      14.8       8.54       1.657      1.688      18.89      1.1827     33.29     
2662.2     0.218      254.8      9.55       17.2       24.98      18.55      15.82      8.5        4.36       132.9      11.06      0.2034     3.981      15.67      8.09       1.673      1.713      18.9       1.1813     30.24     
2662.4     0.2166007  254.8      8.700424   17.16002   25.45975   17.34059   15.37022   8.380059   4.701823   132.4002   11.60972   0.2009013  3.431255   11.21188   7.940074   1.684994   1.711001   19.34977   1.179801   29.46039  
2662.6     0.2168999  256.1993   8.630035   18.3094    28.43842   16.63034   15.72982   8.220078   4.980856   132.8998   11.86987   0.2027991  2.881252   13.5787    7.690124   1.696994   1.701005   20.46943   1.174703   29.59993  
2662.8     0.2192     263.8      8.52       19.92      31.76      16.45      16.48      8.22       4.9        133.6      11.93      0.2027     3.031      11.08      7.690001   1.685      1.716      21.15      1.1695     32.29     
2663       0.2211     266.1      8.12       20.4       33.73      17.03      16.36      8.34       4.703      134.6      13.94      0.2009     2.831      9.91       7.94       1.697      1.717      21.64      1.1631     36.55     
2663.2     0.2219     274        8.42       20.65      34.36      17.55      15.85      8.34       4.368      135.6      13.27      0.1991     2.931      12.09      8.09       1.695      1.69       21.4       1.1552     42.66     
2663.4     0.2220999  284.3948   8.95973    20.79992   32.40095   17.67994   15.60013   8.34       3.9472     136.8993   12.20051   0.1979006  2.931      16.65733   8.040025   1.669013   1.67101    20.48045   1.147604   47.74746  
2663.6     0.2217002  287.1986   9.389786   19.92043   29.66131   17.92987   15.38011   8.34       3.773085   138.5992   11.56031   0.1983998  3.230843   17.02981   7.990025   1.64901    1.659006   20.19014   1.140404   57.33521  
2663.8     0.2218     276.8      10.09      19.24      27.67      18.07      14.87      8.48       3.92       140.5      10.88      0.1994     3.381      17.41      8.84       1.643      1.656      17.84      1.1335     66.16     
2664       0.2224     272.3      10.6       16.94      22.96      17.9       13.84      8.88       4.326      143        9.74       0.2027     4.031001   16.55      10.89      1.643      1.657      16.16      1.1277     73.39     
2664.2     0.2236     264.1      10.83      15.06      20.42      17.56      12.66      9.48       4.96       145.2      8.87       0.2077     9.231      17.2       14.04      1.645      1.65       14.51      1.1233     78.38     
2664.4     0.2240997  255.7042   10.99992   14.80013   18.93072   16.92031   11.6205    10.15965   5.778559   147.2989   9.499674   0.2133972  15.32711   18.48933   15.33932   1.633006   1.640005   13.02071   1.122001   81.59839  
2664.6     0.2239001  254.0009   10.62019   14.27026   15.79143   16.5202    10.48054   10.95958   6.690509   149.4988   8.580437   0.2177978  15.43095   12.21253   16.53938   1.625004   1.649995   11.89054   1.1219     81.76991  
2664.8     0.225      254.6      10.14      13.09      14.74      15.74      9.22       11.67      7.509      151.5      8.570001   0.2211     17.231     16.98      13.64      1.627      1.629      11.26      1.1244     79.96     
2665       0.2262     256.6      9.6        12.87      14.06      14.52      8.05       11.32      7.772999   153.1      8.5        0.2226     12.431     9.5        13.04      1.605      1.604      10.98      1.13       77.77     
2665.2     0.227      263.1      9.62       13.17      15.24      12.76      7.55       9.459999   7.412      155        9.18       0.2231     18.631     15.08      16.79      1.585      1.584      11.27      1.1375     75.46     
2665.4     0.2258006  270.7961   9.430096   14.48931   15.69977   10.86088   7.270138   8.200584   6.58539    156.6992   10.15948   0.2233998  15.98223   13.1509    16.04037   1.571007   1.594995   12.16953   1.144596   74.39053  
2665.6     0.2243007  269.0009   9.120155   15.31957   16.15977   9.510632   7.050108   7.270438   5.754388   158.3991   9.820167   0.2229003  20.22861   15.23887   16.78962   1.586992   1.618988   13.02956   1.150897   74.55991  
2665.8     0.2238     266.9      8.82       15         16.32      8.819999   6.92       6.46       5.235      160.4      9.74       0.2224     19.131     16.58      17.04      1.615      1.641      13.12      1.16       75.02     
