~Version
 VERS              .         3.0                           : CWLS LOG ASCII STANDARD - VERSION 3.0
 WRAP              .         NO                            : ONE LINE PER DEPTH STEP
 DLM               .         SPACE                         : DELIMITING CHARACTER(SPACE TAB OR COMMA)
~Well Information
#_______________________________________________________________________________
#
#PARAMETER_NAME    .UNIT     VALUE                         : DESCRIPTION
#_______________________________________________________________________________
STRT               .M        2610                          : First reference value
STOP               .M        2690                          : Last reference value
STEP               .M        0.2                           : Step increment
NULL               .         -9999                         : Missing value
COMP               .                                       : Company
WELL               .         191P                          : Well name
FLD                .         0317                          : Field
LOC                .         76.994110, 0.452373           : Location
SRVC               .                                       : Service Company
CTRY               .                                       : Country
DATE               .         2002-09-26                    : Service Date
X                  .m        543870<_techsia_br_>          : X or East-West coordinate
Y                  .m        6437555<_techsia_br_>         : Y or North South coordinate
GDAT               .                                       : Geodetic Datum
HZCS               .                                       : Horizontal Co-ordinate System
EREF               .m        119<_techsia_br_>             : 
PROV               .         1                             : Province
UWI                .         031700191P0                   : Unique well id
~Parameter Information Block
#_______________________________________________________________________________
#
#PARAMETER_NAME    .UNIT     VALUE                         : DESCRIPTION
#_______________________________________________________________________________
SET                .         191P                          : 
SET_031700191P0_T_132207_0 .                                       : 
SET_031700191P0_T_132739_0 .                                       : 
STEP_031700191P0_T_132207_0 .M        .2                            : STEP
STEP_031700191P0_T_132739_0 .M        .2                            : STEP
STOP_031700191P0_T_132207_0 .M        2746                          : STOP DEPTH
STOP_031700191P0_T_132739_0 .M        2746                          : STOP DEPTH
STRT_031700191P0_T_132207_0 .M        420                           : START DEPTH
STRT_031700191P0_T_132739_0 .M        10                            : START DEPTH
TLFamily_DS        .         Caliper                       : 
TLFamily_DT        .         Compressional Slowness        : 
TLFamily_GR        .         Gamma Ray                     : 
TLFamily_GZ1       .         Extra Shallow Resistivity     : 
TLFamily_GZ2       .         Shallow Resistivity           : 
TLFamily_GZ3       .         Medium Resistivity            : 
TLFamily_GZ3R      .         Medium Resistivity            : 
TLFamily_GZ4       .         Deep Resistivity              : 
TLFamily_GZ5       .         Extra Deep Resistivity        : 
TLFamily_ILD       .         Conductivity                  : 
TLFamily_LLD       .         Lateral Log Resistivity       : 
TLFamily_MD        .         Measured Depth                : 
TLFamily_MDS       .         Micro Caliper                 : 
TLFamily_MGZ       .         Micro Gradient Resistivity    : 
TLFamily_MLL       .         Micro Lateral Log Resistivity : 
TLFamily_MPZ       .         Micro Potential Resistivity   : 
TLFamily_NGR       .         Neutron Gamma                 : 
TLFamily_NKTD      .         Neutron Far                   : 
TLFamily_PZ        .         Potential Resistivity         : 
TLFamily_RS        .         Mud Resistivity               : 
TLFamily_SP        .         Spontaneous Potential         : 
~Curve Information
#_______________________________________________________________________________
#
#LOGNAME           .UNIT     LOG_ID                        : DESCRIPTION
#_______________________________________________________________________________
MD                 .M                                      :  {F}
DS                 .m                                      :  {F}
DT                 .ms/m                                   :  {F}
GR                 .gapi                                   :  {F}
GZ1                .ohmm                                   :  {F}
GZ2                .ohmm                                   :  {F}
GZ3                .ohmm                                   :  {F}
GZ3R               .ohmm                                   :  {F}
GZ4                .ohmm                                   :  {F}
GZ5                .ohmm                                   :  {F}
ILD                .msim/m                                 :  {F}
LLD                .ohmm                                   :  {F}
MDS                .m                                      :  {F}
MGZ                .ohmm                                   :  {F}
MLL                .ohmm                                   :  {F}
MPZ                .ohmm                                   :  {F}
NGR                .ue                                     :  {F}
NKTD               .ue                                     :  {F}
PZ                 .ohmm                                   :  {F}
RS                 .ohmm                                   :  {F}
SP                 .mv                                     :  {F}
~Ascii
# ...
2624       0.2217     265.3      21.92      21.56      25.58      17.94      19.61      8.97       9.305      60.6       23.09      0.2275     54.493     48.83      25.015     1.599      1.537      21.83      1.5011     107.81    
2624.2     0.2217     256.2      19.6       20.56      26.16      18.51      19.01      9.419999   10.607     60.40001   20.77      0.227      15.44      79.88      5.989999   1.643      1.575      22.81      1.5017     106.75    
2624.4     0.2214001  283.4864   18.07076   17.92123   28.2789    19.19965   19.82958   10.27955   12.73584   59.2006    12.88308   0.227      10.31808   13.19187   5.383287   1.593025   1.604985   24.31922   1.500201   105.7405  
2624.6     0.2214     320.9813   18.04002   17.43024   31.87809   19.93962   21.26925   12.10901   14.23321   56.30141   11.31074   0.2264003  13.26333   12.74022   7.86351    1.502046   1.58601    25.32948   1.497301   105.0404  
2624.8     0.2214     347.6      19.49      20.78      35.14      23.77      23.02      15.19      15.51      50.3       15.67      0.2259     38.806     15.29      16.2       1.484      1.528      27.34      1.4943     104.3     
2625       0.2211     335.7      22.05      21.45      40         26.87      24.61      17.38      16.638     42.3       21.62      0.2251     27.995     51.34      16.35      1.511      1.49       29.73      1.4863     103.65    
2625.2     0.2209     365        24.49      24.87      45.39      28.72      26.52      18.42      16.958     37.5       22.58      0.2246     19.313     93.22001   9.988      1.535      1.517      32.72      1.4844     103.02    
2625.4     0.2209     399.2828   27.31859   27.1688    50.3174    30.15927   28.91875   18.93974   16.72511   40.99818   21.3406    0.2241002  19.60285   31.9271    10.34482   1.520007   1.55698    35.12875   1.482901   102.2604  
2625.6     0.2209     407.1961   29.39896   28.99906   45.45231   30.78968   30.42923   20.03944   16.28022   52.1937    20.02064   0.2233004  19.28915   38.26652   10.1421    1.50101    1.545006   34.09052   1.481401   101.3305  
2625.8     0.2209     405.8      31.69      25.38      42.09      30.34      29.79      20.36      15.532     56.79999   18.62      0.2223     15.15      31.12      15.85      1.513      1.524      31.63      1.4806     100.63    
2626       0.2211     416.8      33.33      21.99      42.09      29.28      30.7       20.32      14.994     59.1       12.29      0.2221     20.038     38.45      11.302     1.546      1.558      29.73      1.4796     99.78     
2626.2     0.2211     417.1      34.53      22.84      41.59      29.12      35.84      19.98      14.46      54.2       14.4       0.2214     18.57      38.89      17.67      1.561      1.6        30.71      1.4788     98.52     
2626.4     0.2211     445.6857   35.5395    23.75953   40.96031   30.39935   43.01608   19.23037   13.8433    47.90296   18.49768   0.2210002  21.80025   55.80992   10.78766   1.557002   1.61999    32.61902   1.477301   97.27062  
2626.6     0.2211     437.6041   36.9493    23.56009   42.03946   32.92868   49.93627   18.17052   13.05838   43.5021    19.38954   0.2211999  19.45111   69.76222   10.68005   1.559998   1.638991   34.69892   1.475801   95.6908   
2626.8     0.2213     442.2      39         23.09      45.18      36         55.05      17.09      12.627     41.3       19.45      0.2214     17.606     26.91      8.212      1.603      1.678      37.12      1.4787     93.24     
2627       0.2213     494.2      42.31      23.97      50.08001   38.88      54.2       16.67      12.771     40.3       18.44      0.2219     21.483     31.84      9.91       1.662      1.726      39.49      1.4759     90.69     
2627.2     0.2216     455.3      46.51      25.73      54.36      41.13      52.61      16.98      12.744     37.4       17.14      0.2222     19.154     27.49      11.85      1.732      1.771      42.24001   1.473      88.66     
2627.4     0.2216     387.4339   52.507     27.36916   54.9497    42.87911   53.1897    17.70963   12.21026   33.10202   22.44697   0.2222     23.34768   93.92229   17.03691   1.794968   1.815977   44.83865   1.469402   87.31067  
2627.6     0.2220998  395.4959   54.82884   28.05965   55.57969   44.17935   55.5388    18.24973   11.42638   29.60165   34.51257   0.2223999  34.28941   67.4012    23.41628   1.848973   1.868973   47.20878   1.466402   86.55038  
2627.8     0.2227     437        54.76      28.28      57.89      45.57      60.59      17.84      10.407     28.1       41.48      0.2226     28.163     213.3201   24.4       1.876      1.916      49.77      1.4637     85.76     
2628       0.2231     504.7      53.82      27.66      60.73      47.74999   69.32001   17.01      9.334      27.6       27.04      0.2234     15.983     30.24      16.66      1.855      1.875      52.27999   1.4615     85.14     
2628.2     0.2246     427.7      51.84      26.88      61.3       50.86      77.86      16.59      8.335      26.2       27.58      0.2245     14.32      145.59     12.02      1.827      1.783      55.32      1.4607     84.48     
2628.4     0.2261992  397.4151   50.01091   26.71009   62.82923   55.12777   86.15565   16.49005   7.677315   24.00105   25.74089   0.2256994  20.48633   46.12651   20.95418   1.794016   1.730026   58.10856   1.4605     83.20064  
2628.6     0.2273994  401.398    51.56922   27.02983   66.49812   62.25621   94.26575   17.0797    7.406134   21.60114   23.07126   0.2266995  22.0272    48.76862   14.88754   1.737028   1.753988   60.67868   1.4612     82.18051  
2628.8     0.2277     378.5      51.96      27.66      70.09      69.83999   106.39     19.04      7.309999   19.1       26.44      0.228      28.087     26.87      21.775     1.716      1.79       63.24001   1.4625     80.96     
2629       0.2277     379.1      52.28      28.93      74.3       78.06      130.83     21.15      7.215001   17.1       30.27      0.2292     28.22      167.7599   22.94      1.722      1.773      65.63      1.4638     80.47     
2629.2     0.2276     397.3      51.92      30.59      77.28999   86.14      148.43     24.85      7.183001   15.4       31.27      0.2309     32.053     61.39      16.91      1.716      1.731      67.89      1.4666     80.02     
2629.4     0.2274001  404.6963   50.87053   31.9593    79.78873   94.34571   155.7563   27.36868   7.183001   14.60039   35.23789   0.2319994  35.33627   139.8124   23.78095   1.706005   1.732      70.29876   1.468599   79.85008  
2629.6     0.2276998  394.605    53.01892   32.24986   82.91841   106.7634   153.6111   30.18852   7.208988   13.80039   30.75209   0.2327996  30.98604   100.8665   27.82282   1.68601    1.764984   72.70877   1.470699   79.70007  
2629.8     0.2279     400.9      54.8       32.2       86.58999   100.68     147.95     33         7.269001   13.3       27.77      0.233      25.9       76.97001   15.45      1.716      1.796      74.68001   1.4713     79.54     
2630       0.2276     412.1      55.45      32.56001   89.82001   106.45     146.12     36.27999   7.311      12.8       27.9       0.2332     23.484     94.15      21.39      1.77       1.819      75.48001   1.4698     79        
2630.2     0.2271     422.2      55.81      31.99      89.55      106.38     149.75     40.38      7.358      12.5       27.62      0.233      18.438     82.20999   13.61      1.782      1.857      75.29001   1.469      77.71     
2630.4     0.2271     434.4939   55.92994   31.12043   84.67238   109.7883   156.1268   45.32738   7.437961   12.5       26.01078   0.233      21.38641   71.54497   18.05545   1.808987   1.855001   74.90018   1.467501   76.15078  
2630.6     0.2282994  422.1062   55.78008   30.64024   82.89088   109.5401   165.7251   50.12748   7.438001   12.5       24.46075   0.2320005  29.79506   77.74674   13.64191   1.783013   1.859998   74.91001   1.466001   74.29093  
2630.8     0.2294     409.4      55.28      29.84      83.16      109.84     171.06     54.54001   7.343      13.1       22.14      0.231      27.556     91.54      21.288     1.793      1.89       76.08999   1.4645     72.22     
