~Version
 VERS              .         3.0                           : CWLS LOG ASCII STANDARD - VERSION 3.0
 WRAP              .         NO                            : ONE LINE PER DEPTH STEP
 DLM               .         SPACE                         : DELIMITING CHARACTER(SPACE TAB OR COMMA)
~Well Information
#_______________________________________________________________________________
#
#PARAMETER_NAME    .UNIT     VALUE                         : DESCRIPTION
#_______________________________________________________________________________
STRT               .M        2610                          : First reference value
STOP               .M        2690                          : Last reference value
STEP               .M        0.2                           : Step increment
NULL               .         -9999                         : Missing value
COMP               .                                       : Company
WELL               .         191P                          : Well name
FLD                .         0317                          : Field
LOC                .         76.994110, 0.452373           : Location
SRVC               .                                       : Service Company
CTRY               .                                       : Country
DATE               .         2002-09-26                    : Service Date
X                  .m        543870<_techsia_br_>          : X or East-West coordinate
Y                  .m        6437555<_techsia_br_>         : Y or North South coordinate
GDAT               .                                       : Geodetic Datum
HZCS               .                                       : Horizontal Co-ordinate System
EREF               .m        119<_techsia_br_>             : 
PROV               .         1                             : Province
UWI                .         031700191P0                   : Unique well id
~Parameter Information Block
#_______________________________________________________________________________
#
#PARAMETER_NAME    .UNIT     VALUE                         : DESCRIPTION
#_______________________________________________________________________________
SET                .         191P                          : 
SET_031700191P0_T_132207_0 .                                       : 
SET_031700191P0_T_132739_0 .                                       : 
STEP_031700191P0_T_132207_0 .M        .2                            : STEP
STEP_031700191P0_T_132739_0 .M        .2                            : STEP
STOP_031700191P0_T_132207_0 .M        2746                          : STOP DEPTH
STOP_031700191P0_T_132739_0 .M        2746                          : STOP DEPTH
STRT_031700191P0_T_132207_0 .M        420                           : START DEPTH
STRT_031700191P0_T_132739_0 .M        10                            : START DEPTH
TLFamily_DS        .         Caliper                       : 
TLFamily_DT        .         Compressional Slowness        : 
TLFamily_GR        .         Gamma Ray                     : 
TLFamily_GZ1       .         Extra Shallow Resistivity     : 
TLFamily_GZ2       .         Shallow Resistivity           : 
TLFamily_GZ3       .         Medium Resistivity            : 
TLFamily_GZ3R      .         Medium Resistivity            : 
TLFamily_GZ4       .         Deep Resistivity              : 
TLFamily_GZ5       .         Extra Deep Resistivity        : 
TLFamily_ILD       .         Conductivity                  : 
TLFamily_LLD       .         Lateral Log Resistivity       : 
TLFamily_MD        .         Measured Depth                : 
TLFamily_MDS       .         Micro Caliper                 : 
TLFamily_MGZ       .         Micro Gradient Resistivity    : 
TLFamily_MLL       .         Micro Lateral Log Resistivity : 
TLFamily_MPZ       .         Micro Potential Resistivity   : 
TLFamily_NGR       .         Neutron Gamma                 : 
TLFamily_NKTD      .         Neutron Far                   : 
TLFamily_PZ        .         Potential Resistivity         : 
TLFamily_RS        .         Mud Resistivity               : 
TLFamily_SP        .         Spontaneous Potential         : 
~Curve Information
#_______________________________________________________________________________
#
#LOGNAME           .UNIT     LOG_ID                        : DESCRIPTION
#_______________________________________________________________________________
MD                 .M                                      :  {F}
DS                 .m                                      :  {F}
DT                 .ms/m                                   :  {F}
GR                 .gapi                                   :  {F}
GZ1                .ohmm                                   :  {F}
GZ2                .ohmm                                   :  {F}
GZ3                .ohmm                                   :  {F}
GZ3R               .ohmm                                   :  {F}
GZ4                .ohmm                                   :  {F}
GZ5                .ohmm                                   :  {F}
ILD                .msim/m                                 :  {F}
LLD                .ohmm                                   :  {F}
MDS                .m                                      :  {F}
MGZ                .ohmm                                   :  {F}
MLL                .ohmm                                   :  {F}
MPZ                .ohmm                                   :  {F}
NGR                .ue                                     :  {F}
NKTD               .ue                                     :  {F}
PZ                 .ohmm                                   :  {F}
RS                 .ohmm                                   :  {F}
SP                 .mv                                     :  {F}
~Ascii
# ...
2652       0.2229     319.2      11.45      12.9       18         33.88      13.19      40.7       66.51699   52.8       12.46      0.2279     14.431     48.19      16.84      1.577      1.427      15.99      1.1796     52.59     
2652.2     0.2232     325.5      11.57      14.23      19.63      29.62      10.65      42.76      90.644     46.8       12.83      0.2282     15.181     19.9       14.09      1.503      1.356      18.54      1.1844     39.28     
2652.4     0.2232     318.0038   10.86035   17.82799   38.46706   26.31156   12.58895   39.57154   95.38457   42.10223   13.20981   0.2291995  15.23097   11.99303   13.04051   1.431036   1.277039   24.02689   1.188598   31.23402  
2652.6     0.2244993  336.1909   7.631615   23.86652   56.62906   25.0806    15.23854   39.07024   98.5414    40.90059   18.36697   0.2305993  14.23149   36.35981   15.23881   1.37103    1.205036   31.97542   1.192798   26.2325   
2652.8     0.228      399        5.18       25.94      69.92999   24.61      17.98      37.82      98.52401   41.7       64.23      0.2331     15.981     109.18     9.04       1.329      1.173      41.49      1.1949     27.78     
2653       0.2319     440.8      4.75       29.65      81.5       25.55      27.11      35.27      95.11201   46.3       83.55001   0.2359     9.380999   187.81     14.84      1.211      1.144      52.14001   1.1984     31.66     
2653.2     0.2402     458.5      4.68       36.16      99.78999   28.58      31.72      32.7       92.43999   55.90001   32.13      0.2387     5.831      99.19001   8.44       1.145      1.147      59.28      1.2012     34.82     
2653.4     0.2376013  499.1797   4.590045   40.19788   101.5891   34.71662   42.89352   33.58954   89.45448   67.19381   28.38176   0.2396995  7.679943   43.7779    14.58601   1.12501    1.141003   60.51937   1.202999   37.34874  
2653.6     0.2267054  530.8842   4.619985   40.29995   97.00223   42.02598   53.23425   36.2686    85.46796   73.99642   60.17736   0.2380009  9.03027    217.835    16.73885   1.121002   1.152994   59.1007    1.203      38.28953  
2653.8     0.2195     457.6      5.03       35.03      82.93      48.52      65.81999   39.12      70.553     79.69999   126.11     0.2314     8.531      218.81     11.34      1.133      1.21       53.63      1.2029     37.83     
2654       0.2206     310.1      6.74       29.28      62.75999   53.14      70.11001   36.02      56.627     83.9       22.56      0.2144     6.331      38.84      9.64       1.153      1.369      46.23      1.2022     35.69     
2654.2     0.2187     283.7      7.39       24.66      50.93      54.75999   69.78999   23.25      48.564     85.90001   13.71      0.2094     3.981      22.11      9.839999   1.241      1.489      35.5       1.2014     31.77     
2654.4     0.2159014  251.616    7.54992    22.1212    44.7429    54.32022   70.75951   17.88235   34.28096   88.09888   13.28021   0.2045024  3.531212   16.60238   8.940428   1.34095    1.634927   30.43235   1.199901   27.34221  
2654.6     0.2159     262.7944   7.619965   21.79016   41.67147   54.94968   69.12083   12.25232   23.72337   89.79915   14.40941   0.2003021  3.031231   11.26218   8.440243   1.522909   1.73395    29.26057   1.197801   25.28103  
2654.8     0.2169     269.2      7.46       22.12      39.31      55.4       59.74001   9.089999   20.949     92.1       14.33      0.199      3.181      10.93      8.239999   1.687      1.792      28.47      1.1956     24.83     
2655       0.2169     270        7.34       22.12      37.15      52.55      48.16      7.570001   19.552     94.10001   14.49      0.1978     3.181      11.55      7.89       1.763      1.772      27.69      1.1934     25.31     
2655.2     0.2164     272.8      7.66       21.7       36.5       46.85      41.2       6.79       9.051      96.09999   14.6       0.1966     2.981      11.35      7.74       1.741      1.739      27.22      1.1887     26.11     
2655.4     0.2157003  277.6976   8.229714   20.84042   36.08021   41.66245   34.36312   6.020362   6.862949   96.99954   14.21019   0.1977994  2.981      10.46043   7.789975   1.725008   1.713013   26.77022   1.186501   26.26992  
2655.6     0.2146005  276.2008   8.54984    20.00041   35.62022   37.29207   31.97115   5.610198   4.955806   96.30033   13.62029   0.1984997  2.981      10.30008   7.939925   1.697014   1.684015   26.44017   1.184601   24.79074  
2655.8     0.2144     269.6      8.41       19.57      35.38      32.84      29.62      5.68       3.141      93.80001   13.12      0.1985     3.031      11.01      7.89       1.669      1.695      25.49      1.1824     22.19     
2656       0.2136     265        7.91       20.6       35.22001   28.9       27.56      6.579999   2.059      90.3       14.06      0.1974     3.181      10.79      7.89       1.677      1.734      25.34      1.1816     19.92     
2656.2     0.2137     266.4      7.77       20.21      35.37      26.1       25.77      7.48       1.402      88.5       14.89      0.1963     2.981      10.88      8.04       1.699      1.75       25.88      1.1802     18.68     
2656.4     0.2131003  276.5949   7.45016    20.51985   35.21008   25.42034   24.48062   8.629382   1.038156   87.5005    14.50019   0.1954004  2.881049   9.690561   8.04       1.736981   1.745003   26.4697    1.1801     17.93038  
2656.6     0.213      285.5955   7.400025   20.36008   34.89017   25.42      23.00072   10.0992    0.78411    86.70039   13.66041   0.1954     3.180842   9.330177   7.840099   1.71701    1.743001   26.47999   1.181499   17.77008  
2656.8     0.2128     289.6      7.06       20.04      34.73      24.62      22.06      11.54      0.533      84.8       13.71      0.1962     3.181      9.899999   7.84       1.705      1.748      26.64      1.1835     18.21     
2657       0.2121     280.6      6.73       19.73      34.73      23.66      21.58      12.84      0.409      81.99999   13.77      0.1969     2.831      10.83      7.84       1.735      1.768      26.81      1.1863     19.53     
2657.2     0.2121     271.3      6.64       19.75      35.05      23.34      21.33      13.84      0.327      79.40001   14.61      0.1969     3.031      10.16      7.84       1.745      1.8        27.78      1.1884     20.91     
2657.4     0.2130995  279.7957   6.81991    20.19977   35.74965   23.73979   22.44942   14.55963   0.1950504  76.60136   15.65946   0.1967001  3.031      10.53981   7.84       1.780982   1.795002   28.73951   1.191698   22.08941  
2657.6     0.2156987  284.9974   7.43969    20.67976   38.67849   24.20976   23.72935   16.32907   0.191002   74.60098   15.32017   0.1989989  2.831097   11.69939   8.139848   1.757012   1.843975   30.17927   1.195898   23.12948  
2657.8     0.2204     291.7      7.71       22.1       42.15      25.39      25         18.52      0.187      71.6       15.26      0.2035     2.931      14.65      8.99       1.787      1.909      31.46      1.1986     23.88     
2658       0.2206     274.4      8.06       23.4       45.14      26.34      26.6       20.17      0.183      68.50001   15.2       0.2089     3.631      25.05      11.39      1.863      1.971      32.75      1.2021     24.34     
2658.2     0.2186     222.6      8.37       25.28      47.78001   27.51      28.15      21.1       0.242      66.59999   17.92      0.2215     10.231     43.07      20.19      1.923      2.01       34.19      1.2056     24.82     
2658.4     0.2186     222.2002   8.100135   25.90968   48.72951   29.33906   29.79915   21.99954   0.4588532  65.70045   19.14936   0.2277969  20.32403   98.60915   11.84316   1.958982   2.060975   34.83968   1.2063     25.62959  
2658.6     0.2200993  222.3999   7.76017    26.35978   47.9304    30.60935   31.07934   22.94952   0.5199676  66.29969   18.70022   0.2139069  12.98391   34.01811   18.88558   2.030964   2.08199    34.87998   1.2057     26.57952  
2658.8     0.2195     218.4      8.04       25.43      51.4       32.33001   32.19      22.8       0.648      69.30001   18.25      0.2203     4.681001   69.72001   12.04      2.037      2.024      34.86      1.2057     27.53     
